country	group	sector	subsector	id	company_name	company_city	company_headcount	supplier_of	site_status	verified_by_europages	year_established	main_activity	information	websites	address	postcode	keywords	products	products_language	chunk	lat	long
france	agriculture_livestock	agricultural_production	NA	SARL-ENTR-TRAVAUX-AGRICOLES-DOURDAN_FRA608827-00101	SARL ENTR TRAVAUX AGRICOLES DOURDAN	Villampuy	1 - 10	soil preparation services | crop services	Registered office	FALSE			The company SARL ENTR TRAVAUX AGRICOLES DOURDAN, which operates in the Crop services industry. It also operates in the Soil preparation services industries. It is based in Villampuy, France.		La Bourdiniere 	28200	Crop services, Soil preparation services	NA	NA	2	48.07462283846152	1.3453858692694303
france	agriculture_livestock	agricultural_production	NA	SARL-NOIRAULT-GERARD-ET-GUY_FRA776142-00101	SARL NOIRAULT GERARD ET GUY	Jousse	1 - 10	soil preparation services | crop services	Registered office	FALSE			The company SARL NOIRAULT GERARD ET GUY, which operates in the Crop services industry. It also operates in the Soil preparation services industries. It is based in Jousse, France.		Lieu Dit Les Janilles 	86350	Crop services, Soil preparation services	NA	NA	2	46.264322050000004	0.5062562107951185
france	agriculture_livestock	agricultural_production	NA	SARL-TASTARD_FRA725898-00101	SARL TASTARD	Ruffiac	1 - 10	soil preparation services | crop services	Registered office	FALSE			The company SARL TASTARD, which operates in the Crop services industry. It also operates in the Soil preparation services industries. It is based in Ruffiac, France.		Gaincru 	56140	Crop services, Soil preparation services	NA	NA	2	47.81064089127904	-2.3557694485028478
france	agriculture_livestock	agricultural_production	NA	LEBRUN-SARL_FRA739777-00101	LEBRUN SARL	Bertincourt	1 - 10	soil preparation services | crop services	Registered office	FALSE			The company LEBRUN SARL, which operates in the Crop services industry. It also operates in the Soil preparation services industries. It is based in Bertincourt, France.		26 Rue Du Marechal Foch 	62124	Crop services, Soil preparation services	NA	NA	2	50.09750085	2.961833964755056
france	agriculture_livestock	agricultural_production	NA	LE-PERICARD_FRA778888-00101	LE PERICARD	Magnet	1 - 10	soil preparation services | crop services	Registered office	FALSE			The company LE PERICARD, which operates in the Crop services industry. It also operates in the Soil preparation services industries. It is based in Magnet, France.		Le Pericard 	03260	Crop services, Soil preparation services	NA	NA	2	46.22338785	3.4569494133555496
france	agriculture_livestock	agricultural_production	NA	LECLERC-ETAV_FRA711255-00101	LECLERC ETAV	Vert Toulon	1 - 10	soil preparation services | crop services	Registered office	FALSE			The company LECLERC ETAV, which operates in the Crop services industry. It also operates in the Soil preparation services industries. It is based in Vert Toulon, France.		20 Rue Des Ruisselots 	51130	Crop services, Soil preparation services	NA	NA	2	48.8826278	4.048218555640632
france	agriculture_livestock	agricultural_production	NA	POUJAUD-ANDRE-ET-FILS_FRA729406-00101	POUJAUD ANDRE ET FILS	La Souterraine	1 - 10	soil preparation services | crop services	Registered office	FALSE			The company POUJAUD ANDRE ET FILS, which operates in the Crop services industry. It also operates in the Soil preparation services industries. It is based in La Souterraine, France.		Les Hommes 	23300	Crop services, Soil preparation services	NA	NA	2	46.24211997210627	1.4959725607293601
france	agriculture_livestock	agricultural_production	NA	ENTREPRISE-ORAIN_FRA729224-00101	ENTREPRISE ORAIN	Quilly	1 - 10	soil preparation services | crop services	Registered office	FALSE			The company ENTREPRISE ORAIN, which operates in the Crop services industry. It also operates in the Soil preparation services industries. It is based in Quilly, France.		7 B Route Dame De Grace 	44750	Crop services, Soil preparation services	NA	NA	2	47.42247951923077	-1.9645133881158543
france	agriculture_livestock	agricultural_production	NA	AGRI-WOEVRE_FRA661546-00101	AGRI WOEVRE	Fresnes En Woevre	1 - 10	soil preparation services | crop services	Registered office	FALSE			The company AGRI WOEVRE, which operates in the Crop services industry. It also operates in the Soil preparation services industries. It is based in Fresnes En Woevre, France.		Sous Les Cotes 	55160	Crop services, Soil preparation services	NA	NA	2	49.08878945	5.67916984976262
france	agriculture_livestock	agricultural_production	NA	CUMA-DE-LABERGEMENT-CLEMENCIAT_FRA657579-00101	CUMA DE L'ABERGEMENT CLEMENCIAT	L Abergement Clemenciat	1 - 10	soil preparation services | crop services	Registered office	FALSE			The company CUMA DE L'ABERGEMENT CLEMENCIAT, which operates in the Crop services industry. It also operates in the Soil preparation services industries. It is based in L Abergement Clemenciat, France.		Lieu Dit Le Pont Du Village 	01400	Crop services, Soil preparation services	NA	NA	2	46.1240188	4.995777231470218
france	agriculture_livestock	agricultural_production	NA	SARL-NIZAN-SERGE_FRA674046-00101	SARL NIZAN SERGE	Mordelles	1 - 10	soil preparation services | crop services	Registered office	FALSE			The company SARL NIZAN SERGE, which operates in the Crop services industry. It also operates in the Soil preparation services industries. It is based in Mordelles, France.		La Riviere Bouvier 	35310	Crop services, Soil preparation services	NA	NA	2	48.075416691952505	-1.8345663302255706
france	agriculture_livestock	agricultural_production	NA	GENERALE-DE-PRESTATIONS-CENTRE-SUD-OUEST_FRA762058-00101	GENERALE DE PRESTATIONS CENTRE SUD OUEST	Loupiac De La Reole	1 - 10	soil preparation services | crop services	Registered office	FALSE			The company GENERALE DE PRESTATIONS CENTRE SUD OUEST, which operates in the Crop services industry. It also operates in the Soil preparation services industries. It is based in Loupiac De La Reole, France.		33 Lieu Dit Bois Majou Nord 	33190	Crop services, Soil preparation services	NA	NA	2	44.5763239	-0.026459486427319108
france	agriculture_livestock	agricultural_production	NA	CORNEE-LOUVET_FRA701457-00101	CORNEE LOUVET	Roz Landrieux	1 - 10	soil preparation services | crop services	Registered office	FALSE			The company CORNEE LOUVET, which operates in the Crop services industry. It also operates in the Soil preparation services industries. It is based in Roz Landrieux, France.		La Montgatelais 	35120	Crop services, Soil preparation services	NA	NA	2	48.55472110652986	-1.7374697768389709
france	agriculture_livestock	agricultural_production	NA	SARL-MOZIMANN-JOEL_FRA650855-00101	SARL MOZIMANN JOEL	Imling	11 - 50	soil preparation services | crop services	Registered office	FALSE			The company SARL MOZIMANN JOEL, which operates in the Crop services industry. It also operates in the Soil preparation services industries. It is based in Imling, France.		Moulin De La Forges 	57400	Crop services, Soil preparation services	NA	NA	2	48.7322774	7.059518219258022
france	agriculture_livestock	agricultural_production	NA	SOCIETE-PRESSE-DOMINIQUE_FRA778685-00101	SOCIETE PRESSE DOMINIQUE	St Vran	1 - 10	soil preparation services | crop services	Registered office	FALSE			The company SOCIETE PRESSE DOMINIQUE, which operates in the Crop services industry. It also operates in the Soil preparation services industries. It is based in St Vran, France.		La Quehandiere 	22230	Crop services, Soil preparation services	NA	NA	2	48.1935536	-2.384449196532535
france	agriculture_livestock	agricultural_production	NA	ETA-BINAULD_FRA753391-00101	ETA BINAULD	Fournes En Weppes	1 - 10	soil preparation services | crop services	Registered office	FALSE			The company ETA BINAULD, which operates in the Crop services industry. It also operates in the Soil preparation services industries. It is based in Fournes En Weppes, France.		405 Rue Pasteur 	59134	Crop services, Soil preparation services	NA	NA	2	50.59819329343335	2.90179011455548
france	agriculture_livestock	agricultural_production	NA	SARL-DE-LHOTEL_FRA779064-00101	SARL DE L'HOTEL	Le Gouray	1 - 10	soil preparation services | crop services	Registered office	FALSE			The company SARL DE L'HOTEL, which operates in the Crop services industry. It also operates in the Soil preparation services industries. It is based in Le Gouray, France.		Hotel Tronel 	22330	Crop services, Soil preparation services	NA	NA	2	48.28262176875003	-2.491870503657073
france	agriculture_livestock	agricultural_production	NA	SARL-ETA-CHAMBRY_FRA730936-00101	SARL ETA CHAMBRY	Duault	1 - 10	soil preparation services | crop services	Registered office	FALSE			The company SARL ETA CHAMBRY, which operates in the Crop services industry. It also operates in the Soil preparation services industries. It is based in Duault, France.		Keriou 	22160	Crop services, Soil preparation services	NA	NA	2	48.40071975	-3.4286841265809622
france	agriculture_livestock	agricultural_production	NA	SARL-RONDIER_FRA602889-00101	SARL RONDIER	Cogny		soil preparation services | crop services	Registered office	FALSE			The company SARL RONDIER, which operates in the Crop services industry. It also operates in the Soil preparation services industries. It is based in Cogny, France.		Domaine De Cogny 	18130	Crop services, Soil preparation services	NA	NA	2	46.92716875	2.593698404490982
france	agriculture_livestock	agricultural_production	NA	SARL-BRIAND_FRA632614-00101	SARL BRIAND	Caouennec Lanvezeac		soil preparation services | crop services	Registered office	FALSE			The company SARL BRIAND, which operates in the Crop services industry. It also operates in the Soil preparation services industries. It is based in Caouennec Lanvezeac, France.		Lan Ar Voguer 	22300	Crop services, Soil preparation services	NA	NA	2	48.73068192375183	-3.460870396257499
france	agriculture_livestock	agricultural_production	NA	SARL-ETA-MEURIC_FRA724692-00101	SARL E.T.A MEURIC	Tremel	1 - 10	soil preparation services | crop services	Registered office	FALSE			The company SARL E.T.A MEURIC, which operates in the Crop services industry. It also operates in the Soil preparation services industries. It is based in Tremel, France.		Kerdraon 	22310	Crop services, Soil preparation services	NA	NA	2	48.6340772	-3.611553555657367
france	agriculture_livestock	agricultural_production	NA	SARL-TULOUP_FRA700688-00101	SARL TULOUP	Longaulnay	1 - 10	soil preparation services | crop services	Registered office	FALSE			The company SARL TULOUP, which operates in the Crop services industry. It also operates in the Soil preparation services industries. It is based in Longaulnay, France.		Launay Biheul 	35190	Crop services, Soil preparation services	NA	NA	2	48.29603646285678	-1.9274610517933835
france	agriculture_livestock	agricultural_production	NA	TINTENIER_FRA787816-00101	TINTENIER	Buigny L Abbe	1 - 10	soil preparation services | crop services	Registered office	FALSE			The company TINTENIER, which operates in the Crop services industry. It also operates in the Soil preparation services industries. It is based in Buigny L Abbe, France.		23 Grande Rue 	80132	Crop services, Soil preparation services	NA	NA	2	50.114242000000004	1.7354406129392583
france	agriculture_livestock	agricultural_production	NA	SEIGLE-PERE-FILS_FRA792371-00101	SEIGLE PERE FILS	Moidieu Detourbe	1 - 10	soil preparation services | crop services	Registered office	FALSE			The company SEIGLE PERE FILS, which operates in the Crop services industry. It also operates in the Soil preparation services industries. It is based in Moidieu Detourbe, France.		Hameau Boulatiere 	38440	Crop services, Soil preparation services	NA	NA	2	45.494002449999996	5.147498195868604
france	agriculture_livestock	agricultural_production	NA	TRAVAUX-AGRICOLES-BOUDEAUD_FRA781775-00101	TRAVAUX AGRICOLES BOUDEAUD	Thire	1 - 10	soil preparation services | crop services	Registered office	FALSE			The company TRAVAUX AGRICOLES BOUDEAUD, which operates in the Crop services industry. It also operates in the Soil preparation services industries. It is based in Thire, France.		11 Rue De Rochefort 	85210	Crop services, Soil preparation services	NA	NA	2	46.556494668518525	-1.0312533389776457
france	agriculture_livestock	agricultural_production	NA	ENTREPRISE-DE-TRAVAUX-AGRICOLES-VIALA_FRA723376-00101	ENTREPRISE DE TRAVAUX AGRICOLES VIALA	Laboulbene	1 - 10	soil preparation services | crop services	Registered office	FALSE			The company ENTREPRISE DE TRAVAUX AGRICOLES VIALA, which operates in the Crop services industry. It also operates in the Soil preparation services industries. It is based in Laboulbene, France.		Lieu Dit Jalabert 	81100	Crop services, Soil preparation services	NA	NA	2	43.60367398301885	2.2459006424023986
france	agriculture_livestock	agricultural_production	NA	SOCIETE-A-RESPONSABILITE-LIMITEE-SCHWE_FRA656209-00101	SOCIETE A RESPONSABILITE LIMITEE SCHWE	Ohnenheim	1 - 10	soil preparation services | crop services	Registered office	FALSE			The company SOCIETE A RESPONSABILITE LIMITEE SCHWE, which operates in the Crop services industry. It also operates in the Soil preparation services industries. It is based in Ohnenheim, France.		Rue De Mackenheim 	67390	Crop services, Soil preparation services	NA	NA	2	48.1872799	7.5523017945854765
france	agriculture_livestock	agricultural_production	NA	COLLET-ET-FILS_FRA690576-00101	COLLET ET FILS	Arcon	1 - 10	soil preparation services | crop services	Registered office	FALSE			The company COLLET ET FILS, which operates in the Crop services industry. It also operates in the Soil preparation services industries. It is based in Arcon, France.		Le Crozet 	42370	Crop services, Soil preparation services	NA	NA	2	46.051076801634174	3.914678575133384
france	agriculture_livestock	agricultural_production	NA	SARL-EMMANUEL-TERRYN_FRA793013-00101	SARL EMMANUEL TERRYN	Ferrieres Haut Clocher	1 - 10	soil preparation services | crop services	Registered office	FALSE			The company SARL EMMANUEL TERRYN, which operates in the Crop services industry. It also operates in the Soil preparation services industries. It is based in Ferrieres Haut Clocher, France.		Route D Angerville Le Bosc 	27190	Crop services, Soil preparation services	NA	NA	2	48.9856291	0.918199523075657
france	agriculture_livestock	agricultural_production	NA	ENTREPRISE-TRAVAUX-AGRICOLES-SOUDET_FRA717219-00101	ENTREPRISE TRAVAUX AGRICOLES SOUDET	La Couture Boussey	1 - 10	soil preparation services | crop services	Registered office	FALSE			The company ENTREPRISE TRAVAUX AGRICOLES SOUDET, which operates in the Crop services industry. It also operates in the Soil preparation services industries. It is based in La Couture Boussey, France.		Rue Du Champ De Bataille Hameau Bousset 	27750	Crop services, Soil preparation services	NA	NA	2	48.903051149999996	1.3942205279857458
france	agriculture_livestock	agricultural_production	NA	E-T-A-VERDIER_FRA782800-00101	E T A VERDIER	Pontgouin	1 - 10	soil preparation services | crop services	Registered office	FALSE			The company E T A VERDIER, which operates in the Crop services industry. It also operates in the Soil preparation services industries. It is based in Pontgouin, France.		21 La Grange Au Bois 	28190	Crop services, Soil preparation services	NA	NA	2	48.42486389303672	1.3507319155937416
france	agriculture_livestock	agricultural_production	NA	SARL-PHILIPPOT_FRA760531-00101	SARL PHILIPPOT	Dontrien	1 - 10	soil preparation services | crop services	Registered office	FALSE			The company SARL PHILIPPOT, which operates in the Crop services industry. It also operates in the Soil preparation services industries. It is based in Dontrien, France.		3 Rue De L'Eglise Chez M Et Mme Philippot 	51490	Crop services, Soil preparation services	NA	NA	2	49.270330349999995	4.320077499281544
france	agriculture_livestock	agricultural_production	NA	PRESTATIONS-VITICOLES-JANY-ROUPSY_FRA726741-00101	PRESTATIONS VITICOLES JANY ROUPSY	Chigny Les Roses	1 - 10	soil preparation services | crop services	Registered office	FALSE			The company PRESTATIONS VITICOLES JANY ROUPSY, which operates in the Crop services industry. It also operates in the Soil preparation services industries. It is based in Chigny Les Roses, France.		6 Rue Octave Gougelet 	51500	Crop services, Soil preparation services	NA	NA	2	49.1687104	4.026716668203613
france	agriculture_livestock	agricultural_production	NA	EURL-ETA-DECHAMBRE_FRA729011-00101	EURL ETA DECHAMBRE	Trigueres	1 - 10	soil preparation services | crop services	Registered office	FALSE			The company EURL ETA DECHAMBRE, which operates in the Crop services industry. It also operates in the Soil preparation services industries. It is based in Trigueres, France.		Lieu Dit Les Chalots Les Etoits 	45220	Crop services, Soil preparation services	NA	NA	2	47.94510288582397	2.93391349040899
france	agriculture_livestock	agricultural_production	NA	ENTR-TRAVAUX-AGRICOLES-QUICLET_FRA777991-00101	ENTR TRAVAUX AGRICOLES QUICLET	Montigny Les Vesoul	1 - 10	soil preparation services | crop services	Registered office	FALSE			The company ENTR TRAVAUX AGRICOLES QUICLET, which operates in the Crop services industry. It also operates in the Soil preparation services industries. It is based in Montigny Les Vesoul, France.		25 Grande Rue 	70000	Crop services, Soil preparation services	NA	NA	2	47.61001915	6.1766399948524455
france	agriculture_livestock	agricultural_production	NA	SARL-HOUSSAIS-ET-FILS_FRA731535-00101	SARL HOUSSAIS ET FILS	Corps Nuds	1 - 10	soil preparation services | crop services	Registered office	FALSE			The company SARL HOUSSAIS ET FILS, which operates in the Crop services industry. It also operates in the Soil preparation services industries. It is based in Corps Nuds, France.		La Houzais 	35150	Crop services, Soil preparation services	NA	NA	2	47.97974777536961	-1.5751036877787046
france	agriculture_livestock	agricultural_production	NA	SARL-TRAVERS-ET-FILS_FRA738198-00101	SARL TRAVERS ET FILS	St Aubin Du Cormier	1 - 10	soil preparation services | crop services	Registered office	FALSE			The company SARL TRAVERS ET FILS, which operates in the Crop services industry. It also operates in the Soil preparation services industries. It is based in St Aubin Du Cormier, France.		La Lande Aux Agneaux 	35140	Crop services, Soil preparation services	NA	NA	2	48.33071279960299	-1.3734998308570963
france	agriculture_livestock	agricultural_production	NA	ETS-EMILE-ROBERT_FRA753654-00101	ETS EMILE ROBERT	Monclar De Quercy	1 - 10	soil preparation services | crop services	Registered office	FALSE			The company ETS EMILE ROBERT, which operates in the Crop services industry. It also operates in the Soil preparation services industries. It is based in Monclar De Quercy, France.		Les Bourezes 	82230	Crop services, Soil preparation services	NA	NA	2	43.97077026388889	1.5439187760381416
france	agriculture_livestock	agricultural_production	NA	LAMONT-COLIN_FRA717863-00101	LAMONT COLIN	Hangest Sur Somme	1 - 10	soil preparation services | crop services	Registered office	FALSE			The company LAMONT COLIN, which operates in the Crop services industry. It also operates in the Soil preparation services industries. It is based in Hangest Sur Somme, France.		15 Rue Du Pont De Grez 	80310	Crop services, Soil preparation services	NA	NA	2	49.954746	2.1074593363633136
france	agriculture_livestock	agricultural_production	NA	ETA-LIONEL-PIPON_FRA782070-00101	ETA LIONEL PIPON	Notre Dame Du Hamel	1 - 10	soil preparation services | crop services	Registered office	FALSE			The company ETA LIONEL PIPON, which operates in the Crop services industry. It also operates in the Soil preparation services industries. It is based in Notre Dame Du Hamel, France.		La Briardiere 	27390	Crop services, Soil preparation services	NA	NA	2	48.923137249999996	0.47180245107758645
france	agriculture_livestock	agricultural_production	NA	BORDAISEAUBOULARD_FRA752053-00101	BORDAISEAU-BOULARD	Brette Les Pins	1 - 10	soil preparation services | crop services	Registered office	FALSE			The company BORDAISEAU-BOULARD, which operates in the Crop services industry. It also operates in the Soil preparation services industries. It is based in Brette Les Pins, France.		Lieu Dit Le Leard 	72250	Crop services, Soil preparation services	NA	NA	2	47.928309975	0.3658002230789871
france	agriculture_livestock	agricultural_production	NA	SARL-ENTREPRISE-NAULET_FRA724768-00101	SARL ENTREPRISE NAULET	Boce	1 - 10	soil preparation services | crop services	Registered office	FALSE			The company SARL ENTREPRISE NAULET, which operates in the Crop services industry. It also operates in the Soil preparation services industries. It is based in Boce, France.		La Morillere 	49150	Crop services, Soil preparation services	NA	NA	2	47.58570053174911	-0.08774684860882384
france	agriculture_livestock	agricultural_production	NA	CANTIN-PERE-ET-FILS_FRA741901-00101	CANTIN PERE ET FILS	Le Gue De Velluire	1 - 10	soil preparation services | crop services	Registered office	FALSE			The company CANTIN PERE ET FILS, which operates in the Crop services industry. It also operates in the Soil preparation services industries. It is based in Le Gue De Velluire, France.		Le Breau D'Eau 	85770	Crop services, Soil preparation services	NA	NA	2	46.37902485	-0.885217433531439
france	agriculture_livestock	agricultural_production	NA	MECANISATION-TRAVAUX-SERVICES_FRA710454-00101	MECANISATION TRAVAUX SERVICES	Laferte Sur Aube	1 - 10	soil preparation services | crop services	Registered office	FALSE			The company MECANISATION TRAVAUX SERVICES, which operates in the Crop services industry. It also operates in the Soil preparation services industries. It is based in Laferte Sur Aube, France.		Ferme De Varencey 	52120	Crop services, Soil preparation services	NA	NA	2	48.040033199999996	4.8841053925756395
france	agriculture_livestock	agricultural_production	NA	SARL-HOERLE_FRA758656-00101	SARL HOERLE	Crastatt	1 - 10	soil preparation services | crop services	Registered office	FALSE			The company SARL HOERLE, which operates in the Crop services industry. It also operates in the Soil preparation services industries. It is based in Crastatt, France.		54 Rue Principale 	67310	Crop services, Soil preparation services	NA	NA	2	48.6236139425926	7.449138942615694
france	agriculture_livestock	agricultural_production	NA	CHRISTOPHE-GRANDIN_FRA781541-00101	CHRISTOPHE GRANDIN	Lengronne	1 - 10	soil preparation services | crop services	Registered office	FALSE			The company CHRISTOPHE GRANDIN, which operates in the Crop services industry. It also operates in the Soil preparation services industries. It is based in Lengronne, France.		Le Furgon 	50450	Crop services, Soil preparation services	NA	NA	2	48.917672717857144	-1.3267475413481786
france	agriculture_livestock	agricultural_production	NA	ETA-LE-FOLLLE-COGUIEC_FRA733852-00101	ETA LE FOLL-LE COGUIEC	Plounevez Quintin	1 - 10	soil preparation services | crop services	Registered office	FALSE			The company ETA LE FOLL-LE COGUIEC, which operates in the Crop services industry. It also operates in the Soil preparation services industries. It is based in Plounevez Quintin, France.		Crech Maurice 	22110	Crop services, Soil preparation services	NA	NA	2	48.23807737682216	-3.31430802268296
france	agriculture_livestock	agricultural_production	NA	CAPUS-ET-FILS_FRA765291-00101	CAPUS ET FILS	Gaillac	1 - 10	soil preparation services | crop services	Registered office	FALSE			The company CAPUS ET FILS, which operates in the Crop services industry. It also operates in the Soil preparation services industries. It is based in Gaillac, France.		Laborie 	81600	Crop services, Soil preparation services	NA	NA	2	43.8849623	1.9126391503886784
france	agriculture_livestock	agricultural_production	NA	SARL-DU-PETIT-PERIOT_FRA721125-00101	SARL DU PETIT PERIOT	Vron	1 - 10	soil preparation services | crop services	Registered office	FALSE			The company SARL DU PETIT PERIOT, which operates in the Crop services industry. It also operates in the Soil preparation services industries. It is based in Vron, France.		1 Route Nationale 	80120	Crop services, Soil preparation services	NA	NA	2	50.3020436936709	1.749182234790192
france	agriculture_livestock	agricultural_production	NA	BILLAUD_FRA769932-00101	BILLAUD	Mons	1 - 10	soil preparation services | crop services	Registered office	FALSE			The company BILLAUD, which operates in the Crop services industry. It also operates in the Soil preparation services industries. It is based in Mons, France.		3 Place Des Saules La Tacherie 	17160	Crop services, Soil preparation services	NA	NA	2	45.86459930882353	-0.30001536396685397
france	agriculture_livestock	agricultural_production	NA	SARL-ENTREPRISE-LE-GARFF_FRA672361-00101	SARL ENTREPRISE LE GARFF	Melrand	1 - 10	soil preparation services | crop services	Registered office	FALSE			The company SARL ENTREPRISE LE GARFF, which operates in the Crop services industry. It also operates in the Soil preparation services industries. It is based in Melrand, France.		Kerroux 	56310	Crop services, Soil preparation services	NA	NA	2	47.9761077	-3.137587275510464
france	agriculture_livestock	agricultural_production	NA	TAROUILLY_FRA736717-00101	TAROUILLY	Elliant	1 - 10	soil preparation services | crop services	Registered office	FALSE			The company TAROUILLY, which operates in the Crop services industry. It also operates in the Soil preparation services industries. It is based in Elliant, France.		Lieu Dit Treanna 	29370	Crop services, Soil preparation services	NA	NA	2	48.059300351689174	-3.8325622275310116
france	agriculture_livestock	agricultural_production	NA	SARL-CHERON_FRA722472-00101	SARL CHERON	Conflans Sur Anille		soil preparation services | crop services	Registered office	FALSE			The company SARL CHERON, which operates in the Crop services industry. It also operates in the Soil preparation services industries. It is based in Conflans Sur Anille, France.		Le Perrin 	72120	Crop services, Soil preparation services	NA	NA	2	47.921037250277784	0.7379885220486904
france	agriculture_livestock	agricultural_production	NA	EURL-HURE_FRA731181-00101	EURL HURE	Grangermont	1 - 10	soil preparation services | crop services	Registered office	FALSE			The company EURL HURE, which operates in the Crop services industry. It also operates in the Soil preparation services industries. It is based in Grangermont, France.		3 Chemin Des Plantes 	45390	Crop services, Soil preparation services	NA	NA	2	48.193338350000005	2.434113019092952
france	agriculture_livestock	agricultural_production	NA	SARL-MANIAGO-PERE-ET-FILS_FRA783274-00101	SARL MANIAGO PERE ET FILS	Fonters Du Razes	1 - 10	soil preparation services | crop services	Registered office	FALSE			The company SARL MANIAGO PERE ET FILS, which operates in the Crop services industry. It also operates in the Soil preparation services industries. It is based in Fonters Du Razes, France.		Domaine De Guinet 	11400	Crop services, Soil preparation services	NA	NA	2	43.32255871758239	1.963621384670887
france	agriculture_livestock	agricultural_production	NA	SARL-BESNARD_FRA745210-00101	SARL BESNARD	Montamy	1 - 10	soil preparation services | crop services	Registered office	FALSE			The company SARL BESNARD, which operates in the Crop services industry. It also operates in the Soil preparation services industries. It is based in Montamy, France.		Les Pouliots 	14260	Crop services, Soil preparation services	NA	NA	2	49.01368977	-0.6715314759260618
france	agriculture_livestock	agricultural_production	NA	ETA-DARMOR_FRA720826-00101	ETA D'ARMOR	Kergrist Moelou	1 - 10	soil preparation services | crop services	Registered office	FALSE			The company ETA D'ARMOR, which operates in the Crop services industry. It also operates in the Soil preparation services industries. It is based in Kergrist Moelou, France.		St Lubin 	22110	Crop services, Soil preparation services	NA	NA	2	48.23807737682216	-3.31430802268296
france	agriculture_livestock	agricultural_production	NA	ANDRIEU-FRERES-SARL_FRA786510-00101	ANDRIEU FRERES SARL	Vacquiers	1 - 10	soil preparation services | crop services	Registered office	FALSE			The company ANDRIEU FRERES SARL, which operates in the Crop services industry. It also operates in the Soil preparation services industries. It is based in Vacquiers, France.		Les Gayous 	31340	Crop services, Soil preparation services	NA	NA	2	43.84235553133334	1.5126078278101511
france	agriculture_livestock	agricultural_production	NA	SARL-HARNOIS_FRA679305-00101	SARL HARNOIS	Chatillon Sur Colmont	1 - 10	soil preparation services | crop services	Registered office	FALSE			The company SARL HARNOIS, which operates in the Crop services industry. It also operates in the Soil preparation services industries. It is based in Chatillon Sur Colmont, France.		Lieu Dit Le Grattoir 	53100	Crop services, Soil preparation services	NA	NA	2	48.3039486	-0.6924881117141635
france	agriculture_livestock	agricultural_production	NA	LAINE-JMC_FRA788106-00101	LAINE JMC	Montpellier De Medillan	1 - 10	soil preparation services | crop services	Registered office	FALSE			The company LAINE JMC, which operates in the Crop services industry. It also operates in the Soil preparation services industries. It is based in Montpellier De Medillan, France.		15 Route De Saintes Les Chapelles 	17260	Crop services, Soil preparation services	NA	NA	2	45.58531837222225	-0.6884732387407255
france	agriculture_livestock	agricultural_production	NA	SARL-CORNU_FRA669990-00101	SARL CORNU	Janze	1 - 10	soil preparation services | crop services	Registered office	FALSE			The company SARL CORNU, which operates in the Crop services industry. It also operates in the Soil preparation services industries. It is based in Janze, France.		Lieu Dit La Heulvrais 	35150	Crop services, Soil preparation services	NA	NA	2	47.97974777536961	-1.5751036877787046
france	agriculture_livestock	agricultural_production	NA	LE-CARROI-DE-LA-BICHE_FRA713769-00101	LE CARROI DE LA BICHE	Barrou	1 - 10	soil preparation services | crop services	Registered office	FALSE			The company LE CARROI DE LA BICHE, which operates in the Crop services industry. It also operates in the Soil preparation services industries. It is based in Barrou, France.		La Roseraie 	37350	Crop services, Soil preparation services	NA	NA	2	46.93686805	0.8589238998693798
france	agriculture_livestock	agricultural_production	NA	SARL-SENAGRI_FRA742122-00101	SARL SENAGRI	Curlu	1 - 10	soil preparation services | crop services	Registered office	FALSE			The company SARL SENAGRI, which operates in the Crop services industry. It also operates in the Soil preparation services industries. It is based in Curlu, France.		1 Rue De Peronne 	80360	Crop services, Soil preparation services	NA	NA	2	50.01267085	2.859938484862361
france	agriculture_livestock	agricultural_production	NA	SARL-LA-COURCHATONNAISE_FRA782454-00101	SARL LA COURCHATONNAISE	Courchaton	1 - 10	soil preparation services | crop services	Registered office	FALSE			The company SARL LA COURCHATONNAISE, which operates in the Crop services industry. It also operates in the Soil preparation services industries. It is based in Courchaton, France.		70110 Courchaton	NA	Crop services, Soil preparation services	NA	NA	2	NA	NA
france	agriculture_livestock	agricultural_production	NA	TRAVAUX-AGRICOLES-NOEL-COUVERCELLE_FRA687637-00101	TRAVAUX AGRICOLES NOEL COUVERCELLE	Voulpaix	1 - 10	soil preparation services | crop services	Registered office	FALSE			The company TRAVAUX AGRICOLES NOEL COUVERCELLE, which operates in the Crop services industry. It also operates in the Soil preparation services industries. It is based in Voulpaix, France.		18 Rue Marcel Serent 	02140	Crop services, Soil preparation services	NA	NA	2	49.82376205	3.9221964189796363
france	agriculture_livestock	agricultural_production	NA	SARL-GERBAUD-PASQUIER_FRA666860-00101	SARL GERBAUD PASQUIER	La Chapelle Aux Lys	1 - 10	soil preparation services | crop services	Registered office	FALSE			The company SARL GERBAUD PASQUIER, which operates in the Crop services industry. It also operates in the Soil preparation services industries. It is based in La Chapelle Aux Lys, France.		Le Lys 	85120	Crop services, Soil preparation services	NA	NA	2	46.597831803164546	-0.7417488932577226
france	agriculture_livestock	agricultural_production	NA	EURL-LEVERRIER_FRA743416-00101	EURL LEVERRIER	Origne	1 - 10	soil preparation services | crop services	Registered office	FALSE			The company EURL LEVERRIER, which operates in the Crop services industry. It also operates in the Soil preparation services industries. It is based in Origne, France.		Le Bourg 	53360	Crop services, Soil preparation services	NA	NA	2	47.921713499999996	-0.783317478725206
france	agriculture_livestock	agricultural_production	NA	SARL-BETTINGER_FRA763112-00101	SARL BETTINGER	Boult Sur Suippe	1 - 10	soil preparation services | crop services	Registered office	FALSE			The company SARL BETTINGER, which operates in the Crop services industry. It also operates in the Soil preparation services industries. It is based in Boult Sur Suippe, France.		23 Rue De Bazancourt 	51110	Crop services, Soil preparation services	NA	NA	2	49.3449792	4.17502798822207
france	agriculture_livestock	agricultural_production	NA	SARL-HOGUET_FRA763594-00101	SARL HOGUET	Oeuf En Ternois	1 - 10	soil preparation services | crop services	Registered office	FALSE			The company SARL HOGUET, which operates in the Crop services industry. It also operates in the Soil preparation services industries. It is based in Oeuf En Ternois, France.		23 Rue D'Agerue 	62130	Crop services, Soil preparation services	NA	NA	2	50.369535811265074	2.290440024846117
france	agriculture_livestock	agricultural_production	NA	LE-GRAND-JOIGNE_FRA727481-00101	LE GRAND JOIGNE	Change	1 - 10	soil preparation services | crop services	Registered office	FALSE			The company LE GRAND JOIGNE, which operates in the Crop services industry. It also operates in the Soil preparation services industries. It is based in Change, France.		Le Grand Joigne 	53810	Crop services, Soil preparation services	NA	NA	2	48.113150899999994	-0.8022062261217591
france	agriculture_livestock	agricultural_production	NA	ETA-GILLES-KEROUEDAN_FRA785000-00101	ETA GILLES KEROUEDAN	Pont Croix	1 - 10	soil preparation services | crop services	Registered office	FALSE			The company ETA GILLES KEROUEDAN, which operates in the Crop services industry. It also operates in the Soil preparation services industries. It is based in Pont Croix, France.		Moulin Lespoul 	29790	Crop services, Soil preparation services	NA	NA	2	48.05051185	-4.472276053772976
france	agriculture_livestock	agricultural_production	NA	CLAUZEL-J-P-STE-D-EXPLOITATION_FRA781542-00101	CLAUZEL J P STE D EXPLOITATION	Jonquieres	1 - 10	soil preparation services | crop services	Registered office	FALSE			The company CLAUZEL J P STE D EXPLOITATION, which operates in the Crop services industry. It also operates in the Soil preparation services industries. It is based in Jonquieres, France.		Route De Camaret 	84150	Crop services, Soil preparation services	NA	NA	2	44.153622049999996	4.931203542001355
france	agriculture_livestock	agricultural_production	NA	SARL-DESRATS_FRA710750-00101	SARL DESRATS	Villabon	1 - 10	soil preparation services | crop services	Registered office	FALSE			The company SARL DESRATS, which operates in the Crop services industry. It also operates in the Soil preparation services industries. It is based in Villabon, France.		Lieu Dit L'Orme 	18800	Crop services, Soil preparation services	NA	NA	2	47.1038917	2.7212832799057165
france	agriculture_livestock	agricultural_production	NA	SARL-CAZAJOUS-JEAN-NOEL_FRA784574-00101	SARL CAZAJOUS JEAN NOEL	Bosdarros	1 - 10	soil preparation services | crop services	Registered office	FALSE			The company SARL CAZAJOUS JEAN NOEL, which operates in the Crop services industry. It also operates in the Soil preparation services industries. It is based in Bosdarros, France.		Quartier Les Pindats Chez M Jean Noel Cazajous 	64290	Crop services, Soil preparation services	NA	NA	2	43.230016163723626	-0.5054947586096783
france	agriculture_livestock	agricultural_production	NA	MICHON_FRA712191-00101	MICHON	Lescheroux	1 - 10	soil preparation services | crop services	Registered office	FALSE			The company MICHON, which operates in the Crop services industry. It also operates in the Soil preparation services industries. It is based in Lescheroux, France.		Lieu Dit Les Thietres 	01560	Crop services, Soil preparation services	NA	NA	2	46.44334266774193	5.110550894695953
france	agriculture_livestock	agricultural_production	NA	SARL-COUDERC_FRA718811-00101	SARL COUDERC	St Germain De Calberte		soil preparation services | crop services	Registered office	FALSE			The company SARL COUDERC, which operates in the Crop services industry. It also operates in the Soil preparation services industries. It is based in St Germain De Calberte, France.		La Martinerie 	48370	Crop services, Soil preparation services	NA	NA	2	44.226199449999996	3.812497366291816
france	agriculture_livestock	agricultural_production	NA	BANCHEREAU-LOUIS-MARIE_FRA748643-00101	BANCHEREAU LOUIS MARIE	Chanzeaux	1 - 10	soil preparation services | crop services	Registered office	FALSE			The company BANCHEREAU LOUIS MARIE, which operates in the Crop services industry. It also operates in the Soil preparation services industries. It is based in Chanzeaux, France.		Chemin De La Motte 	49750	Crop services, Soil preparation services	NA	NA	2	47.274342296383644	-0.6442882712574352
france	agriculture_livestock	agricultural_production	NA	SARL-HELLO-GRAIGNIC_FRA654077-00101	SARL HELLO GRAIGNIC	Pont Scorff	1 - 10	soil preparation services | crop services	Registered office	FALSE			The company SARL HELLO GRAIGNIC, which operates in the Crop services industry. It also operates in the Soil preparation services industries. It is based in Pont Scorff, France.		Lieu Dit Biviere 	56620	Crop services, Soil preparation services	NA	NA	2	47.8551253	-3.383722491602061
france	agriculture_livestock	agricultural_production	NA	TRAVAUX-AGRICOLES-ET-RURAUX-LE-FORESTIER_FRA672474-00101	TRAVAUX AGRICOLES ET RURAUX LE FORESTIER	Lanvollon	1 - 10	soil preparation services | crop services	Registered office	FALSE			The company TRAVAUX AGRICOLES ET RURAUX LE FORESTIER, which operates in the Crop services industry. It also operates in the Soil preparation services industries. It is based in Lanvollon, France.		Rumoal 	22290	Crop services, Soil preparation services	NA	NA	2	48.6453862	-3.0027708662179036
france	agriculture_livestock	agricultural_production	NA	ENTREPRISE-POZZOLI_FRA797453-00101	ENTREPRISE POZZOLI	Vianne	1 - 10	soil preparation services | crop services	Registered office	FALSE			The company ENTREPRISE POZZOLI, which operates in the Crop services industry. It also operates in the Soil preparation services industries. It is based in Vianne, France.		Pebasque 	47230	Crop services, Soil preparation services	NA	NA	2	44.18199319530808	0.2966315720589363
france	agriculture_livestock	agricultural_production	NA	BOUHET_FRA734100-00101	BOUHET	Marigny Chemereau	1 - 10	soil preparation services | crop services	Registered office	FALSE			The company BOUHET, which operates in the Crop services industry. It also operates in the Soil preparation services industries. It is based in Marigny Chemereau, France.		Lieu Dit Le Fouilloux Le Fouilloux 	86370	Crop services, Soil preparation services	NA	NA	2	46.4354144	0.2446791032950341
france	agriculture_livestock	agricultural_production	NA	EURL-SAILLY_FRA739334-00101	EURL SAILLY	Caix	1 - 10	soil preparation services | crop services	Registered office	FALSE			The company EURL SAILLY, which operates in the Crop services industry. It also operates in the Soil preparation services industries. It is based in Caix, France.		14 Rue De L'Eglise 	80170	Crop services, Soil preparation services	NA	NA	2	49.807464319607845	2.691184820452946
france	agriculture_livestock	agricultural_production	NA	SARL-BELY_FRA788706-00101	SARL BELY	Cezais	1 - 10	soil preparation services | crop services	Registered office	FALSE			The company SARL BELY, which operates in the Crop services industry. It also operates in the Soil preparation services industries. It is based in Cezais, France.		Lieu Dit L'Erriere 	85410	Crop services, Soil preparation services	NA	NA	2	46.59721152857143	-0.8739592125521358
france	agriculture_livestock	agricultural_production	NA	ENTR-GENERALE-TRAVAUX-AGRICOLES-DAVID_FRA750243-00101	ENTR GENERALE TRAVAUX AGRICOLES DAVID	Sion Les Mines	1 - 10	soil preparation services | crop services	Registered office	FALSE			The company ENTR GENERALE TRAVAUX AGRICOLES DAVID, which operates in the Crop services industry. It also operates in the Soil preparation services industries. It is based in Sion Les Mines, France.		Lieu Dit La Chevauchee 	44590	Crop services, Soil preparation services	NA	NA	2	47.670263673879376	-1.6442493113847207
france	agriculture_livestock	agricultural_production	NA	SARL-LE-PONT_FRA746008-00101	SARL LE PONT	Banvou	1 - 10	soil preparation services | crop services	Registered office	FALSE			The company SARL LE PONT, which operates in the Crop services industry. It also operates in the Soil preparation services industries. It is based in Banvou, France.		Le Pont 	61450	Crop services, Soil preparation services	NA	NA	2	48.65742037142858	-0.5335202877870457
france	agriculture_livestock	agricultural_production	NA	FILIPE-L-M_FRA716492-00101	FILIPE L M	Touquin	1 - 10	soil preparation services | crop services	Registered office	FALSE			The company FILIPE L M, which operates in the Crop services industry. It also operates in the Soil preparation services industries. It is based in Touquin, France.		Lieu Dit Gouvert 	77131	Crop services, Soil preparation services	NA	NA	2	48.738454000000004	3.0102175426151367
france	agriculture_livestock	agricultural_production	NA	SARL-LEMONNIER_FRA719274-00101	SARL LEMONNIER	Contest	1 - 10	soil preparation services | crop services	Registered office	FALSE			The company SARL LEMONNIER, which operates in the Crop services industry. It also operates in the Soil preparation services industries. It is based in Contest, France.		Le Haut Aunay 	53100	Crop services, Soil preparation services	NA	NA	2	48.3039486	-0.6924881117141635
france	agriculture_livestock	agricultural_production	NA	SARL-LIERE_FRA795196-00101	SARL LIERE	Beruges	1 - 10	soil preparation services | crop services	Registered office	FALSE			The company SARL LIERE, which operates in the Crop services industry. It also operates in the Soil preparation services industries. It is based in Beruges, France.		3 Rue Du Puits 	86190	Crop services, Soil preparation services	NA	NA	2	46.61705821684697	0.08669257276245473
france	agriculture_livestock	agricultural_production	NA	SARL-SALVAYRE-FRERES_FRA796095-00101	SARL SALVAYRE FRERES	Cintegabelle	1 - 10	soil preparation services | crop services	Registered office	FALSE			The company SARL SALVAYRE FRERES, which operates in the Crop services industry. It also operates in the Soil preparation services industries. It is based in Cintegabelle, France.		1470 Route Nationale 20 Les Baccarets 	31550	Crop services, Soil preparation services	NA	NA	2	43.28842265	1.5487748358229312
france	agriculture_livestock	agricultural_production	NA	SARL-ETS-GRUSELLE-ET-FILS_FRA666691-00101	SARL ETS GRUSELLE ET FILS	Iron	1 - 10	soil preparation services | crop services	Registered office	FALSE			The company SARL ETS GRUSELLE ET FILS, which operates in the Crop services industry. It also operates in the Soil preparation services industries. It is based in Iron, France.		Rue D'Hannappes 	02510	Crop services, Soil preparation services	NA	NA	2	49.97683655	3.6271244595
france	agriculture_livestock	agricultural_production	NA	ENTREPRISE-FROGER_FRA671006-00101	ENTREPRISE FROGER	Chanzeaux	1 - 10	soil preparation services | crop services	Registered office	FALSE			The company ENTREPRISE FROGER, which operates in the Crop services industry. It also operates in the Soil preparation services industries. It is based in Chanzeaux, France.		La Theulerie 	49750	Crop services, Soil preparation services	NA	NA	2	47.274342296383644	-0.6442882712574352
france	agriculture_livestock	agricultural_production	NA	MASSONNET-ET-FILS_FRA711104-00101	MASSONNET ET FILS	Dompierre Sur Mer	1 - 10	soil preparation services | crop services	Registered office	FALSE			The company MASSONNET ET FILS, which operates in the Crop services industry. It also operates in the Soil preparation services industries. It is based in Dompierre Sur Mer, France.		Les Montreaux 	17139	Crop services, Soil preparation services	NA	NA	2	46.18053158888889	-1.071669064577855
france	agriculture_livestock	agricultural_production	NA	SARL-LABORDE-DIDIER_FRA719511-00101	SARL LABORDE DIDIER	Hauriet		soil preparation services | crop services	Registered office	FALSE			The company SARL LABORDE DIDIER, which operates in the Crop services industry. It also operates in the Soil preparation services industries. It is based in Hauriet, France.		Monget 	40250	Crop services, Soil preparation services	NA	NA	2	43.7445048	-0.7396945848162476
france	agriculture_livestock	agricultural_production	NA	MAUGEAIS-PITON_FRA713861-00101	MAUGEAIS PITON	St Pierre Montlimart	1 - 10	soil preparation services | crop services	Registered office	FALSE			The company MAUGEAIS PITON, which operates in the Crop services industry. It also operates in the Soil preparation services industries. It is based in St Pierre Montlimart, France.		Lieu Dit La Gerfaudiere 	49110	Crop services, Soil preparation services	NA	NA	2	47.270650623383325	-0.9439273397629654
france	agriculture_livestock	agricultural_production	NA	SARL-CROISSANT_FRA688237-00101	SARL CROISSANT	Bourgon	1 - 10	soil preparation services | crop services	Registered office	FALSE			The company SARL CROISSANT, which operates in the Crop services industry. It also operates in the Soil preparation services industries. It is based in Bourgon, France.		Lieu Dit La Chevallerie 	53410	Crop services, Soil preparation services	NA	NA	2	48.13008325	-0.9574853524409295
france	agriculture_livestock	agricultural_production	NA	SARL-ETS-GUERIN-JEAN-LOUIS_FRA720412-00101	SARL ETS GUERIN JEAN LOUIS	Villers Sur Bar		soil preparation services | crop services	Registered office	FALSE			The company SARL ETS GUERIN JEAN LOUIS, which operates in the Crop services industry. It also operates in the Soil preparation services industries. It is based in Villers Sur Bar, France.		Villers Sur Bar 	08350	Crop services, Soil preparation services	NA	NA	2	49.710065400000005	4.859392739049223
france	agriculture_livestock	agricultural_production	NA	PRESTATIONS-VITICOLES-MARTINS_FRA680621-00101	PRESTATIONS VITICOLES MARTINS	Baslieux Sous Chatillon	1 - 10	soil preparation services | crop services	Registered office	FALSE			The company PRESTATIONS VITICOLES MARTINS, which operates in the Crop services industry. It also operates in the Soil preparation services industries. It is based in Baslieux Sous Chatillon, France.		18 Rue Valentine Regnier 	51700	Crop services, Soil preparation services	NA	NA	2	49.06510995	3.69296336147589
france	agriculture_livestock	agricultural_production	NA	PRESTATIONS-DE-SCE-VITICOLES-PINTO_FRA683574-00101	PRESTATIONS DE SCE VITICOLES PINTO	Trelou Sur Marne	1 - 10	soil preparation services | crop services	Registered office	FALSE			The company PRESTATIONS DE SCE VITICOLES PINTO, which operates in the Crop services industry. It also operates in the Soil preparation services industries. It is based in Trelou Sur Marne, France.		20 Route De Dormans Hameau De Chassins 	02850	Crop services, Soil preparation services	NA	NA	2	49.08264295	3.58040399738431
france	agriculture_livestock	agricultural_production	NA	CHOUTEAU_FRA726288-00101	CHOUTEAU	Nesle Le Repons	1 - 10	soil preparation services | crop services	Registered office	FALSE			The company CHOUTEAU, which operates in the Crop services industry. It also operates in the Soil preparation services industries. It is based in Nesle Le Repons, France.		18 Rue De La Liberation 	51700	Crop services, Soil preparation services	NA	NA	2	49.06510995	3.69296336147589
france	agriculture_livestock	agricultural_production	NA	SOCIETE-PAUL-LE-ROY_FRA707864-00101	SOCIETE PAUL LE ROY	Elliant	1 - 10	soil preparation services | crop services	Registered office	FALSE			The company SOCIETE PAUL LE ROY, which operates in the Crop services industry. It also operates in the Soil preparation services industries. It is based in Elliant, France.		Kergaouen 	29370	Crop services, Soil preparation services	NA	NA	2	48.059300351689174	-3.8325622275310116
france	agriculture_livestock	agricultural_production	NA	ETABLISSEMENT-BURGALASSE_FRA720349-00101	ETABLISSEMENT BURGALASSE	Caudecoste		soil preparation services | crop services	Registered office	FALSE			The company ETABLISSEMENT BURGALASSE, which operates in the Crop services industry. It also operates in the Soil preparation services industries. It is based in Caudecoste, France.		Lieu Dit Castelnau 	47220	Crop services, Soil preparation services	NA	NA	2	44.09291735	0.7021899591160201
france	agriculture_livestock	agricultural_production	NA	SARL-LEGOY_FRA753739-00101	SARL LEGOY	Godenvillers	1 - 10	soil preparation services | crop services	Registered office	FALSE			The company SARL LEGOY, which operates in the Crop services industry. It also operates in the Soil preparation services industries. It is based in Godenvillers, France.		50 Rue Du Moulin 	60420	Crop services, Soil preparation services	NA	NA	2	49.560260299999996	2.5675067820979036
france	agriculture_livestock	agricultural_production	NA	SARL-UNI-VERT-RURAL_FRA800392-00101	SARL UNI VERT RURAL	Tarasteix	1 - 10	soil preparation services | crop services	Registered office	FALSE			The company SARL UNI VERT RURAL, which operates in the Crop services industry. It also operates in the Soil preparation services industries. It is based in Tarasteix, France.		65320 Tarasteix	NA	Crop services, Soil preparation services	NA	NA	2	NA	NA
france	agriculture_livestock	agricultural_production	NA	ENTREPRISE-THARSILE_FRA733182-00101	ENTREPRISE THARSILE	Urville Nacqueville	1 - 10	soil preparation services | crop services	Registered office	FALSE			The company ENTREPRISE THARSILE, which operates in the Crop services industry. It also operates in the Soil preparation services industries. It is based in Urville Nacqueville, France.		La Chuquetterie 	50460	Crop services, Soil preparation services	NA	NA	2	49.65454795	-1.725756374990371
france	agriculture_livestock	agricultural_production	NA	SARL-ROYER_FRA789914-00101	SARL ROYER	Fontenai Sur Orne	1 - 10	soil preparation services | crop services	Registered office	FALSE			The company SARL ROYER, which operates in the Crop services industry. It also operates in the Soil preparation services industries. It is based in Fontenai Sur Orne, France.		Le Renouillet 	61200	Crop services, Soil preparation services	NA	NA	2	48.731190850000004	-0.007429501435236779
france	agriculture_livestock	agricultural_production	NA	SARL-NOIRAULT-GERARD-ET-GUY_FRA776142-00101	SARL NOIRAULT GERARD ET GUY	Jousse	1 - 10	soil preparation services | crop services	Registered office	FALSE			The company SARL NOIRAULT GERARD ET GUY, which operates in the Crop services industry. It also operates in the Soil preparation services industries. It is based in Jousse, France.		Lieu Dit Les Janilles 	86350	Crop services, Soil preparation services	NA	NA	2	46.264322050000004	0.5062562107951185
france	agriculture_livestock	agricultural_production	NA	SARL-TASTARD_FRA725898-00101	SARL TASTARD	Ruffiac	1 - 10	soil preparation services | crop services	Registered office	FALSE			The company SARL TASTARD, which operates in the Crop services industry. It also operates in the Soil preparation services industries. It is based in Ruffiac, France.		Gaincru 	56140	Crop services, Soil preparation services	NA	NA	2	47.81064089127904	-2.3557694485028478
france	agriculture_livestock	agricultural_production	NA	SARL-GROSSET_FRA713988-00101	SARL GROSSET	St Meen Le Grand	1 - 10	soil preparation services | crop services	Registered office	FALSE			The company SARL GROSSET, which operates in the Crop services industry. It also operates in the Soil preparation services industries. It is based in St Meen Le Grand, France.		La Lande Fauvel 	35290	Crop services, Soil preparation services	NA	NA	2	48.183779258823535	-2.1956404340210427
france	agriculture_livestock	agricultural_production	NA	CAPY-FRERES_FRA798340-00101	CAPY FRERES	Monflanquin	1 - 10	soil preparation services | crop services	Registered office	FALSE			The company CAPY FRERES, which operates in the Crop services industry. It also operates in the Soil preparation services industries. It is based in Monflanquin, France.		Portely 	47150	Crop services, Soil preparation services	NA	NA	2	44.529413510256404	0.8164807942516302
france	agriculture_livestock	agricultural_production	NA	ARMOR-AGRICULTURE-LOISIRS_FRA476251-00101	ARMOR AGRICULTURE LOISIRS	Saint-Herv		soil preparation services | livestock raising - machinery and equipment | crop services		FALSE			The company ARMOR AGRICULTURE LOISIRS, which operates in the Livestock raising - machinery and equipment industry. It also operates in the Crop services, and Soil preparation services industries. It is based in Saint-Herv, France.	https://magasins.espace-emeraude.com/espace-emeraude-c2b793b3eb05?utm_source=Yext&utm_medium=GMB&y_source=1_MTUyMzEwNDgtNzE1LWxvY2F0aW9uLmdvb2dsZV93ZWJzaXRlX292ZXJyaWRl	Zone Industrielle La Gare D' Uzel 	22460	Livestock raising - machinery and equipment, Crop services, Soil preparation services	NA	NA	2	48.2836986	-2.869867029793552
france	agriculture_livestock	agricultural_production	NA	JOLIVET-DIFFUSION_FRA724388-00101	JOLIVET DIFFUSION	Sancerre	1 - 10	tobacco | tobacco and smokers items | import-export - food and agriculture	Registered office	FALSE			The company JOLIVET DIFFUSION, which operates in the Tobacco and smokers items industry. It also operates in the Import-export - food and agriculture, and Tobacco industries. It is based in Sancerre, France.	http://www.pascal-jolivet.com	Les Franches 	18300	Tobacco and smokers items, Import-export - food and agriculture, Tobacco	NA	NA	2	47.288340616943515	2.8696269841448654
france	agriculture_livestock	agricultural_production	NA	SELECTION-FRUITS_FRA625210-00101	SELECTION FRUITS	Nadaillac	1 - 10	tobacco | import-export - food and agriculture | tobacco and smokers items	Registered office	FALSE			The company SELECTION FRUITS, which operates in the Import-export - food and agriculture industry. It also operates in the Tobacco and smokers items, and Tobacco industries. It is based in Nadaillac, France.	http://www.selectionfruits.fr/	Rouves 	24590	Import-export - food and agriculture, Tobacco and smokers items, Tobacco	NA	NA	2	44.987049400000004	1.3087706439633353
france	agriculture_livestock	agricultural_production	NA	MICHARD-PAYS-DE-LOIRE_FRA621703-00101	MICHARD PAYS DE LOIRE	Solesmes	11 - 50	tobacco | import-export - food and agriculture | tobacco and smokers items	Registered office	FALSE			The company MICHARD PAYS DE LOIRE, which operates in the Import-export - food and agriculture industry. It also operates in the Tobacco and smokers items, and Tobacco industries. It is based in Solesmes, France.	https://www.backeuropfrance.fr/fr/adherents/34	Zac Des Vignes 	72300	Import-export - food and agriculture, Tobacco and smokers items, Tobacco	NA	NA	2	47.8361329292714	-0.321288286683535
france	agriculture_livestock	agricultural_production	NA	FRANCE-CONFISERIE_FRA774202-00101	FRANCE CONFISERIE	Paris	1 - 10	tobacco | import-export - food and agriculture | tobacco and smokers items	Registered office	FALSE			The company FRANCE CONFISERIE, which operates in the Import-export - food and agriculture industry. It also operates in the Tobacco and smokers items, and Tobacco industries. It is based in Paris, France.	https://www.franceconfiserie.com/	9 Rue De L Isly 	75008	Import-export - food and agriculture, Tobacco and smokers items, Tobacco	NA	NA	2	48.87186050520944	2.311700225748874
france	agriculture_livestock	agricultural_production	NA	SWISSCO-INDUSTRY_FRA603812-00101	SWISSCO INDUSTRY	Montpellier	1 - 10	tobacco | tobacco and smokers items | import-export - food and agriculture	Registered office	FALSE			The company SWISSCO INDUSTRY, which operates in the Tobacco and smokers items industry. It also operates in the Tobacco, and Import-export - food and agriculture industries. It is based in Montpellier, France.	http://www.swissco-industry.com	1025 Avenue Henri Becquerel Parc Club Du Millenaire 	34000	Tobacco and smokers items, Tobacco, Import-export - food and agriculture	NA	NA	2	43.616367059549084	3.879247529213109
france	agriculture_livestock	agricultural_production	NA	V-AND-B_FRA625838-00101	V AND B	Aze	1 - 10	tobacco | import-export - food and agriculture | tobacco and smokers items	Registered office	FALSE			The company V AND B, which operates in the Import-export - food and agriculture industry. It also operates in the Tobacco and smokers items, and Tobacco industries. It is based in Aze, France.	http://www.vandb.fr	2 Rue De La Roberderie Zi De Bellitourne 	53200	Import-export - food and agriculture, Tobacco and smokers items, Tobacco	NA	NA	2	47.819241149999996	-0.7076712405274235
france	agriculture_livestock	agricultural_production	NA	CAP-HISPANIA_FRA774678-00101	CAP HISPANIA	Paris	1 - 10	tobacco | import-export - food and agriculture | tobacco and smokers items	Registered office	FALSE			The company CAP HISPANIA, which operates in the Import-export - food and agriculture industry. It also operates in the Tobacco and smokers items, and Tobacco industries. It is based in Paris, France.	http://www.caphispania.fr/	23 Rue Jouffroy D Abbans 	75017	Import-export - food and agriculture, Tobacco and smokers items, Tobacco	NA	NA	2	48.88743895	2.3065228678413767
france	agriculture_livestock	agricultural_production	NA	TRANSATLANTIC-PARTNER_FRA600893-00101	TRANSATLANTIC PARTNER	Carriere Sur Seine	1 - 10	tobacco | tobacco and smokers items | import-export - food and agriculture	Registered office	FALSE			The company TRANSATLANTIC PARTNER, which operates in the Tobacco and smokers items industry. It also operates in the Tobacco, and Import-export - food and agriculture industries. It is based in Carriere Sur Seine, France.	http://www.transatlanticpartner.com	6 Avenue Eiffel 	78420	Tobacco and smokers items, Tobacco, Import-export - food and agriculture	NA	NA	2	48.9126629	2.18007030832132
france	agriculture_livestock	agricultural_production	NA	JEAN-MARIE-BOULDY-SARL_FRA602350-00101	JEAN MARIE BOULDY SARL	Pomerol		tobacco | import-export - food and agriculture | tobacco and smokers items	Registered office	FALSE			The company JEAN MARIE BOULDY SARL, which operates in the Import-export - food and agriculture industry. It also operates in the Tobacco and smokers items, and Tobacco industries. It is based in Pomerol, France.	https://bellegrave-pomerol.com/	1 Chemin De Rene 	33500	Import-export - food and agriculture, Tobacco and smokers items, Tobacco	NA	NA	2	44.915317889525966	-0.2382234445172149
france	agriculture_livestock	agricultural_production	NA	LES-FOLIES-DE-BACCHUS_FRA616877-00101	LES FOLIES DE BACCHUS	Villars Fontaine		tobacco | tobacco and smokers items | import-export - food and agriculture	Registered office	FALSE			The company LES FOLIES DE BACCHUS, which operates in the Tobacco and smokers items industry. It also operates in the Tobacco, and Import-export - food and agriculture industries. It is based in Villars Fontaine, France.	https://www.domainemontmain.com/	21700 Villars Fontaine	NA	Tobacco and smokers items, Tobacco, Import-export - food and agriculture	NA	NA	2	NA	NA
france	agriculture_livestock	agricultural_production	NA	FRANIE-SERVICE-SARL_FRA610491-00101	FRANIE SERVICE SARL	Santes	1 - 10	tobacco | import-export - food and agriculture | tobacco and smokers items	Registered office	FALSE			The company FRANIE SERVICE SARL, which operates in the Import-export - food and agriculture industry. It also operates in the Tobacco and smokers items, and Tobacco industries. It is based in Santes, France.		92 Rue Carnot 	59211	Import-export - food and agriculture, Tobacco and smokers items, Tobacco	NA	NA	2	50.588909533658764	2.9643963569900653
france	agriculture_livestock	agricultural_production	NA	TOP-AGRI-ENVIRONNEMENT_FRA732296-00101	TOP AGRI ENVIRONNEMENT	Chozeau	1 - 10	soil preparation services | crop services	Registered office	FALSE			The company TOP AGRI ENVIRONNEMENT, which operates in the Crop services industry. It also operates in the Soil preparation services industries. It is based in Chozeau, France.	http://www.travaux-agricoles-isere.com/infos-legales	Lieu Dit Bulatiere Sous Gazon 	38460	Crop services, Soil preparation services	NA	NA	2	45.717353	5.270583889479393
france	agriculture_livestock	agricultural_production	NA	ETS-GUERREAU_FRA659617-00101	ETS GUERREAU	Caillouel Crepigny	1 - 10	soil preparation services | crop services	Registered office	FALSE			The company ETS GUERREAU, which operates in the Crop services industry. It also operates in the Soil preparation services industries. It is based in Caillouel Crepigny, France.	http://guerreau.fr/	4 Rue Aux Sables 	02300	Crop services, Soil preparation services	NA	NA	2	49.59540498716758	3.197382060691658
france	agriculture_livestock	agricultural_production	NA	EVAPOTEUR_00000005416235-753075001	EVAPOTEUR	Cantin	1 - 10	tobacco		FALSE		Service Provider	The company EVAPOTEUR, is a Service Provider, which operates in the Tobacco industry. It is based in Cantin, France.	https://www.evapoteur.com	64 Rue DE CAMBRAI 	59169	Tobacco	NA	NA	2	50.31734935	3.1352360922562905
france	agriculture_livestock	agricultural_production	NA	SARL-BRC-TEMPLON_FRA656364-00101	SARL BRC TEMPLON	Vergeal	1 - 10	soil preparation services | crop services	Registered office	FALSE			The company SARL BRC TEMPLON, which operates in the Crop services industry. It also operates in the Soil preparation services industries. It is based in Vergeal, France.	https://www.remy-templon.fr/	Le Bois Roux 	35680	Crop services, Soil preparation services	NA	NA	2	48.00990975942029	-1.2773171525516642
france	agriculture_livestock	agricultural_production	NA	SARL-ETA-ROBILLARD_FRA636904-00101	SARL ETA ROBILLARD	Henansal	1 - 10	soil preparation services | crop services	Registered office	FALSE			The company SARL ETA ROBILLARD, which operates in the Crop services industry. It also operates in the Soil preparation services industries. It is based in Henansal, France.	https://www.robillardenvironnement.fr/	Lieu Dit La Planche 	22400	Crop services, Soil preparation services	NA	NA	2	48.4974598529412	-2.530407327651618
france	agriculture_livestock	agricultural_production	NA	CPESO_FRA773505-00101	CPESO	Cenac	1 - 10	tobacco | import-export - food and agriculture	Registered office	FALSE			The company CPESO, which operates in the Import-export - food and agriculture industry. It also operates in the Tobacco industries. It is based in Cenac, France.	http://www.cpeso.com/	6 Avenue De Materre 	33360	Import-export - food and agriculture, Tobacco	NA	NA	2	44.77768024185223	-0.5085368947848175
france	agriculture_livestock	agricultural_production	NA	SARL-MOUSSAYGIFFARD_FRA723968-00101	SARL MOUSSAY-GIFFARD	Marcille La Ville	1 - 10	soil preparation services | crop services	Registered office	FALSE			The company SARL MOUSSAY-GIFFARD, which operates in the Crop services industry. It also operates in the Soil preparation services industries. It is based in Marcille La Ville, France.	https://www.giffard-terrassement-mayenne.fr/	La Loge 	53440	Crop services, Soil preparation services	NA	NA	2	48.29583915	-0.5077431626807702
france	agriculture_livestock	agricultural_production	NA	FFELSINA_FRA617190-00101	FFELSINA	La Queue En Brie		tobacco | import-export - food and agriculture | tobacco and smokers items	Registered office	FALSE			The company FFELSINA, which operates in the Import-export - food and agriculture industry. It also operates in the Tobacco and smokers items, and Tobacco industries. It is based in La Queue En Brie, France.		1 Square Diderot 	94510	Import-export - food and agriculture, Tobacco and smokers items, Tobacco	NA	NA	2	48.78659902333275	2.575662265384513
france	agriculture_livestock	agricultural_production	NA	STE-COOP-AGRIC-PERIGORD-TABAC_FRA252561-00101	STE COOP AGRIC PERIGORD TABAC	Boulazac	11 - 50	tobacco | tobacco and smokers items	Registered office	FALSE	1914	Wholesaler	The company STE COOP AGRIC PERIGORD TABAC, is a Wholesaler, founded in 1914, which operates in the Tobacco and smokers items industry. It also operates in the Tobacco industries. It is based in Boulazac, France.	http://www.perigordtabac.com	35 Avenue Benoit Frachon 	24750	Tobacco and smokers items, Tobacco	NA	NA	2	45.187535800000006	0.7700893325160454
france	agriculture_livestock	agricultural_production	NA	SARL-BRETIN_FRA656434-00101	SARL BRETIN	La Ferriere	1 - 10	soil preparation services | crop services	Registered office	FALSE			The company SARL BRETIN, which operates in the Crop services industry. It also operates in the Soil preparation services industries. It is based in La Ferriere, France.	http://www.sarlbretin.fr/ElementsRubrique.aspx?SITE=BRETIN1&RUB=204&MP_SS_RUB=ELEM&MP_ELT=DETAI&PAGE=1&Lang=FR	Le Grand Moulin 	85280	Crop services, Soil preparation services	NA	NA	2	46.7205005	-1.3310547934017878
france	agriculture_livestock	agricultural_production	NA	SODIP_FRA296235-00101	SODIP	Cournon D Auvergne	11 - 50	tobacco | tobacco and smokers items		FALSE	1987	Wholesaler	The company SODIP, is a Wholesaler, founded in 1987, which operates in the Tobacco and smokers items industry. It also operates in the Tobacco industries. It is based in Cournon D Auvergne, France.	https://www.sodip-neodis.fr/	46 Avenue D Aubiere 	63800	Tobacco and smokers items, Tobacco	NA	NA	2	45.7320902	3.209699897944623
france	agriculture_livestock	agricultural_production	NA	GABOPLA_FRA623555-00101	GABOPLA	Ste Luce Sur Loire	11 - 50	tobacco | tobacco and smokers items | import-export - food and agriculture	Registered office	FALSE			The company GABOPLA, which operates in the Tobacco and smokers items industry. It also operates in the Tobacco, and Import-export - food and agriculture industries. It is based in Ste Luce Sur Loire, France.	https://www.groupe-bondu.com/gabopla	12 Rue De La Jalousie 	44980	Tobacco and smokers items, Tobacco, Import-export - food and agriculture	NA	NA	2	47.25285255	-1.4705194442909035
france	agriculture_livestock	agricultural_production	NA	LA-COOP-LANGUEDOC-ROUSSILLON_FRA658984-00101	LA COOP LANGUEDOC ROUSSILLON	Carcassonne	1 - 10	tobacco | tobacco and smokers items | import-export - food and agriculture	Registered office	FALSE			The company LA COOP LANGUEDOC ROUSSILLON, which operates in the Tobacco and smokers items industry. It also operates in the Tobacco, and Import-export - food and agriculture industries. It is based in Carcassonne, France.	https://www.lacoopoccitanie.fr/	11 Rue Augustin Coulomb Za Arnouzette 	11000	Tobacco and smokers items, Tobacco, Import-export - food and agriculture	NA	NA	2	43.2077173	2.339968564221219
france	agriculture_livestock	agricultural_production	NA	EURO-TRADITION_FRA598672-00101	EURO TRADITION	Fraize	1 - 10	tobacco | tobacco and smokers items | import-export - food and agriculture	Registered office	FALSE			The company EURO TRADITION, which operates in the Tobacco and smokers items industry. It also operates in the Tobacco, and Import-export - food and agriculture industries. It is based in Fraize, France.	http://www.euro-tradition.fr/	11 Route Du Giron 	88230	Tobacco and smokers items, Tobacco, Import-export - food and agriculture	NA	NA	2	48.12955595	7.007314051358351
france	agriculture_livestock	agricultural_production	NA	TRIGEDIS_FRA597341-00101	TRIGEDIS	Fougueyrolles		tobacco | tobacco and smokers items | import-export - food and agriculture	Registered office	FALSE			The company TRIGEDIS, which operates in the Tobacco and smokers items industry. It also operates in the Tobacco, and Import-export - food and agriculture industries. It is based in Fougueyrolles, France.	http://www.trigedisvinsfins.fr/fr/accueil/	Les Majouans 	33220	Tobacco and smokers items, Tobacco, Import-export - food and agriculture	NA	NA	2	44.8173765	0.19036506732570213
france	agriculture_livestock	agricultural_production	NA	BLANDIN-SERVICES-DISTRIBUTION_FRA656060-00101	BLANDIN SERVICES DISTRIBUTION	Bain De Bretagne	1 - 10	soil preparation services | crop services	Registered office	FALSE			The company BLANDIN SERVICES DISTRIBUTION, which operates in the Crop services industry. It also operates in the Soil preparation services industries. It is based in Bain De Bretagne, France.	https://sarl-blandin-service-distribution.business.site/	Le Pont Catel 	35470	Crop services, Soil preparation services	NA	NA	2	47.839183399999996	-1.6821515103416753
france	agriculture_livestock	agricultural_production	NA	ANQUEZ_FRA661486-00101	ANQUEZ	Dizy Le Gros	1 - 10	soil preparation services | crop services	Registered office	FALSE			The company ANQUEZ, which operates in the Crop services industry. It also operates in the Soil preparation services industries. It is based in Dizy Le Gros, France.	https://anquez.site-solocal.com/	1 Le Petit Gue 	02340	Crop services, Soil preparation services	NA	NA	2	49.68533545	4.030142790012777
france	agriculture_livestock	agricultural_production	NA	SOCIETE-HENRIO_FRA642433-00101	SOCIETE HENRIO	St Gerand	1 - 10	soil preparation services | crop services	Registered office	FALSE			The company SOCIETE HENRIO, which operates in the Crop services industry. It also operates in the Soil preparation services industries. It is based in St Gerand, France.	https://www.henrio.fr/	La Lande De La Mer 	56920	Crop services, Soil preparation services	NA	NA	2	48.086991499999996	-2.86346125471236
france	agriculture_livestock	agricultural_production	NA	ETABLISSEMENT-BURGALASSE_FRA720349-00101	ETABLISSEMENT BURGALASSE	Caudecoste		soil preparation services | crop services	Registered office	FALSE			The company ETABLISSEMENT BURGALASSE, which operates in the Crop services industry. It also operates in the Soil preparation services industries. It is based in Caudecoste, France.		Lieu Dit Castelnau 	47220	Crop services, Soil preparation services	NA	NA	2	44.09291735	0.7021899591160201
france	agriculture_livestock	agricultural_production	NA	EURL-DU-VIEUX-PUIT_FRA597199-00101	EURL DU VIEUX PUIT	Reignac		soil preparation services	Registered office	FALSE			The company EURL DU VIEUX PUIT, which operates in the Soil preparation services industry. It is based in Reignac, France.	http://vignoblesbouillac.com/	Lieu Dit Reaud 	33860	Soil preparation services	NA	NA	2	45.24585125	-0.48262297421764827
france	agriculture_livestock	agricultural_production	NA	ETA-LOLLI_FRA613099-00101	E.T.A. LOLLI	Flers En Escrebieux	1 - 10	soil preparation services | crop services	Registered office	FALSE			The company E.T.A. LOLLI, which operates in the Crop services industry. It also operates in the Soil preparation services industries. It is based in Flers En Escrebieux, France.		2 B Ruelle Bastien 	59128	Crop services, Soil preparation services	NA	NA	2	50.4031132	3.0471486456264314
france	agriculture_livestock	agricultural_production	NA	SARL-LIERE_FRA795196-00101	SARL LIERE	Beruges	1 - 10	soil preparation services | crop services	Registered office	FALSE			The company SARL LIERE, which operates in the Crop services industry. It also operates in the Soil preparation services industries. It is based in Beruges, France.		3 Rue Du Puits 	86190	Crop services, Soil preparation services	NA	NA	2	46.61705821684697	0.08669257276245473
france	agriculture_livestock	agricultural_production	NA	EURL-FRONTAGRI_FRA720887-00101	EURL FRONTAGRI	La Malmaison		soil preparation services | crop services	Registered office	FALSE			The company EURL FRONTAGRI, which operates in the Crop services industry. It also operates in the Soil preparation services industries. It is based in La Malmaison, France.		Ferme De Frontigny 	02190	Crop services, Soil preparation services	NA	NA	2	49.4558942	3.957120651276906
france	agriculture_livestock	agricultural_production	NA	FILIPE-L-M_FRA716492-00101	FILIPE L M	Touquin	1 - 10	soil preparation services | crop services	Registered office	FALSE			The company FILIPE L M, which operates in the Crop services industry. It also operates in the Soil preparation services industries. It is based in Touquin, France.		Lieu Dit Gouvert 	77131	Crop services, Soil preparation services	NA	NA	2	48.738454000000004	3.0102175426151367
france	agriculture_livestock	agricultural_production	NA	SARL-LE-PONT_FRA746008-00101	SARL LE PONT	Banvou	1 - 10	soil preparation services | crop services	Registered office	FALSE			The company SARL LE PONT, which operates in the Crop services industry. It also operates in the Soil preparation services industries. It is based in Banvou, France.		Le Pont 	61450	Crop services, Soil preparation services	NA	NA	2	48.65742037142858	-0.5335202877870457
france	agriculture_livestock	agricultural_production	NA	ENTREPRISE-POZZOLI_FRA797453-00101	ENTREPRISE POZZOLI	Vianne	1 - 10	soil preparation services | crop services	Registered office	FALSE			The company ENTREPRISE POZZOLI, which operates in the Crop services industry. It also operates in the Soil preparation services industries. It is based in Vianne, France.		Pebasque 	47230	Crop services, Soil preparation services	NA	NA	2	44.18199319530808	0.2966315720589363
france	agriculture_livestock	agricultural_production	NA	EVDS_FRA701187-00101	E.V.D.S.	Balizac	1 - 10	soil preparation services | crop services	Registered office	FALSE			The company E.V.D.S., which operates in the Crop services industry. It also operates in the Soil preparation services industries. It is based in Balizac, France.		5 Le Moulias 	33730	Crop services, Soil preparation services	NA	NA	2	44.4286453	-0.3468962703117785
france	agriculture_livestock	agricultural_production	NA	SARL-FERET_FRA700048-00101	SARL FERET	Precorbin	1 - 10	soil preparation services | crop services	Registered office	FALSE			The company SARL FERET, which operates in the Crop services industry. It also operates in the Soil preparation services industries. It is based in Precorbin, France.		Le Bourg 	50810	Crop services, Soil preparation services	NA	NA	2	49.10213604095787	-0.9644346753790259
france	agriculture_livestock	agricultural_production	NA	ETA-EDEYER_FRA659441-00101	ETA EDEYER	Cavan	1 - 10	soil preparation services | crop services	Registered office	FALSE			The company ETA EDEYER, which operates in the Crop services industry. It also operates in the Soil preparation services industries. It is based in Cavan, France.		Lan Minter 	22140	Crop services, Soil preparation services	NA	NA	2	48.6570593	-3.319514870604824
france	agriculture_livestock	agricultural_production	NA	SARL-BOIS-JOLY-SERVICES_FRA629193-00101	SARL BOIS JOLY SERVICES	St Pierre D Amilly		soil preparation services | crop services	Registered office	FALSE			The company SARL BOIS JOLY SERVICES, which operates in the Crop services industry. It also operates in the Soil preparation services industries. It is based in St Pierre D Amilly, France.		Bois Joly 	17700	Crop services, Soil preparation services	NA	NA	2	46.09799391120979	-0.7368535206522251
france	agriculture_livestock	agricultural_production	NA	ETA-PERRAUD-SERGE_FRA672762-00101	E.T.A. PERRAUD SERGE	La Roche Vineuse	1 - 10	soil preparation services | crop services	Registered office	FALSE			The company E.T.A. PERRAUD SERGE, which operates in the Crop services industry. It also operates in the Soil preparation services industries. It is based in La Roche Vineuse, France.		Nancelle 	71960	Crop services, Soil preparation services	NA	NA	2	46.34629895	4.720008144032451
france	agriculture_livestock	agricultural_production	NA	TRAVAUX-AGRICOLES-NOEL-COUVERCELLE_FRA687637-00101	TRAVAUX AGRICOLES NOEL COUVERCELLE	Voulpaix	1 - 10	soil preparation services | crop services	Registered office	FALSE			The company TRAVAUX AGRICOLES NOEL COUVERCELLE, which operates in the Crop services industry. It also operates in the Soil preparation services industries. It is based in Voulpaix, France.		18 Rue Marcel Serent 	02140	Crop services, Soil preparation services	NA	NA	2	49.82376205	3.9221964189796363
france	agriculture_livestock	agricultural_production	NA	BOUSQUET-JPM_FRA681661-00101	BOUSQUET JPM	Montredon Labessonnie	1 - 10	soil preparation services | crop services	Registered office	FALSE			The company BOUSQUET JPM, which operates in the Crop services industry. It also operates in the Soil preparation services industries. It is based in Montredon Labessonnie, France.		Lieu Dit Moynes 	81360	Crop services, Soil preparation services	NA	NA	2	43.741351166666654	2.331558906342471
france	agriculture_livestock	agricultural_production	NA	ELIBAST_FRA754156-00101	ELIBAST	Villemoutiers	1 - 10	soil preparation services | crop services	Registered office	FALSE			The company ELIBAST, which operates in the Crop services industry. It also operates in the Soil preparation services industries. It is based in Villemoutiers, France.		15 Le Bois Aux Moines 	45270	Crop services, Soil preparation services	NA	NA	2	47.98651265	2.4607947170146787
france	agriculture_livestock	agricultural_production	NA	SARL-BETTINGER_FRA763112-00101	SARL BETTINGER	Boult Sur Suippe	1 - 10	soil preparation services | crop services	Registered office	FALSE			The company SARL BETTINGER, which operates in the Crop services industry. It also operates in the Soil preparation services industries. It is based in Boult Sur Suippe, France.		23 Rue De Bazancourt 	51110	Crop services, Soil preparation services	NA	NA	2	49.3449792	4.17502798822207
france	agriculture_livestock	agricultural_production	NA	SARL-DE-FRANCE_FRA631102-00101	SARL DE FRANCE	Faverolles Et Coemy		soil preparation services | crop services	Registered office	FALSE			The company SARL DE FRANCE, which operates in the Crop services industry. It also operates in the Soil preparation services industries. It is based in Faverolles Et Coemy, France.		Route De Savigny 	51170	Crop services, Soil preparation services	NA	NA	2	49.225432600000005	3.7614028909102952
france	agriculture_livestock	agricultural_production	NA	FJ-ELLNER_FRA725348-00101	F-J ELLNER	Epernay		soil preparation services | crop services	Registered office	FALSE			The company F-J ELLNER, which operates in the Crop services industry. It also operates in the Soil preparation services industries. It is based in Epernay, France.		51 Rue De Champrot 	51200	Crop services, Soil preparation services	NA	NA	2	49.039137350000004	3.957657072912384
france	agriculture_livestock	agricultural_production	NA	LE-GRAND-JOIGNE_FRA727481-00101	LE GRAND JOIGNE	Change	1 - 10	soil preparation services | crop services	Registered office	FALSE			The company LE GRAND JOIGNE, which operates in the Crop services industry. It also operates in the Soil preparation services industries. It is based in Change, France.		Le Grand Joigne 	53810	Crop services, Soil preparation services	NA	NA	2	48.113150899999994	-0.8022062261217591
france	agriculture_livestock	agricultural_production	NA	CLAUZEL-J-P-STE-D-EXPLOITATION_FRA781542-00101	CLAUZEL J P STE D EXPLOITATION	Jonquieres	1 - 10	soil preparation services | crop services	Registered office	FALSE			The company CLAUZEL J P STE D EXPLOITATION, which operates in the Crop services industry. It also operates in the Soil preparation services industries. It is based in Jonquieres, France.		Route De Camaret 	84150	Crop services, Soil preparation services	NA	NA	2	44.153622049999996	4.931203542001355
france	agriculture_livestock	agricultural_production	NA	SARL-DESRATS_FRA710750-00101	SARL DESRATS	Villabon	1 - 10	soil preparation services | crop services	Registered office	FALSE			The company SARL DESRATS, which operates in the Crop services industry. It also operates in the Soil preparation services industries. It is based in Villabon, France.		Lieu Dit L'Orme 	18800	Crop services, Soil preparation services	NA	NA	2	47.1038917	2.7212832799057165
france	agriculture_livestock	agricultural_production	NA	VIGNOBLES-SERVICES-DU-LIBOURNAIS_FRA702282-00101	VIGNOBLES SERVICES DU LIBOURNAIS	St Ciers D Abzac	1 - 10	soil preparation services | crop services	Registered office	FALSE			The company VIGNOBLES SERVICES DU LIBOURNAIS, which operates in the Crop services industry. It also operates in the Soil preparation services industries. It is based in St Ciers D Abzac, France.		Le Barrau 	33910	Crop services, Soil preparation services	NA	NA	2	45.01031055	-0.22558749158176838
france	agriculture_livestock	agricultural_production	NA	ETA-TREPANT_FRA651284-00101	ETA TREPANT	Bouvincourt En Vermandois	1 - 10	soil preparation services | crop services	Registered office	FALSE			The company ETA TREPANT, which operates in the Crop services industry. It also operates in the Soil preparation services industries. It is based in Bouvincourt En Vermandois, France.		1 Rue D'Estrees 	80200	Crop services, Soil preparation services	NA	NA	2	49.92469655	2.929921881508562
france	agriculture_livestock	agricultural_production	NA	SARL-ETA-OGER_FRA679844-00101	SARL ETA OGER	St Gildas	1 - 10	soil preparation services | crop services	Registered office	FALSE			The company SARL ETA OGER, which operates in the Crop services industry. It also operates in the Soil preparation services industries. It is based in St Gildas, France.		Bourg 	22800	Crop services, Soil preparation services	NA	NA	2	48.40840198086164	-2.9227591486160716
france	agriculture_livestock	agricultural_production	NA	SARL-LEGOIS_FRA654173-00101	SARL LEGOIS	La Chaussee	1 - 10	soil preparation services | crop services	Registered office	FALSE			The company SARL LEGOIS, which operates in the Crop services industry. It also operates in the Soil preparation services industries. It is based in La Chaussee, France.		76590 La Chaussee	NA	Crop services, Soil preparation services	NA	NA	2	NA	NA
france	agriculture_livestock	agricultural_production	NA	CUMA-DE-SANDRANS_FRA745402-00101	CUMA DE SANDRANS	Sandrans	1 - 10	soil preparation services | crop services	Registered office	FALSE			The company CUMA DE SANDRANS, which operates in the Crop services industry. It also operates in the Soil preparation services industries. It is based in Sandrans, France.		Local De La Cuma 	01400	Crop services, Soil preparation services	NA	NA	2	46.1240188	4.995777231470218
france	agriculture_livestock	agricultural_production	NA	LEFORT_FRA596271-00101	LEFORT	Limey Remenauville	11 - 50	soil preparation services | crop services	Registered office	FALSE			The company LEFORT, which operates in the Crop services industry. It also operates in the Soil preparation services industries. It is based in Limey Remenauville, France.		Ferme Sainte Barbe 	54470	Crop services, Soil preparation services	NA	NA	2	48.92053895	5.84918932549113
france	agriculture_livestock	agricultural_production	NA	SARL-FERRE-ERIC_FRA733963-00101	SARL FERRE ERIC	La Boussac	1 - 10	soil preparation services | crop services	Registered office	FALSE			The company SARL FERRE ERIC, which operates in the Crop services industry. It also operates in the Soil preparation services industries. It is based in La Boussac, France.		Launay Belle Fille 	35120	Crop services, Soil preparation services	NA	NA	2	48.55472110652986	-1.7374697768389709
france	agriculture_livestock	agricultural_production	NA	SARL-PASCHETTARAMIN_FRA745344-00101	SARL PASCHETTA-RAMIN	Beaupuy	1 - 10	soil preparation services | crop services	Registered office	FALSE			The company SARL PASCHETTA-RAMIN, which operates in the Crop services industry. It also operates in the Soil preparation services industries. It is based in Beaupuy, France.		Lieu Dit Pre Passieu 	31850	Crop services, Soil preparation services	NA	NA	2	43.643486823333326	1.5331113362192421
france	agriculture_livestock	agricultural_production	NA	BOIVIN_FRA793917-00101	BOIVIN	Montcony	1 - 10	soil preparation services | crop services	Registered office	FALSE			The company BOIVIN, which operates in the Crop services industry. It also operates in the Soil preparation services industries. It is based in Montcony, France.		Lieu Dit Villebuguet 	71500	Crop services, Soil preparation services	NA	NA	2	46.64090080625002	5.213026641129259
france	agriculture_livestock	agricultural_production	NA	BALLIGAND-JPH_FRA612218-00101	BALLIGAND JPH	Gleize	1 - 10	soil preparation services | crop services	Registered office	FALSE			The company BALLIGAND JPH, which operates in the Crop services industry. It also operates in the Soil preparation services industries. It is based in Gleize, France.		719 Rue Des Cheres 	69400	Crop services, Soil preparation services	NA	NA	2	45.99238235	4.704043700818896
france	agriculture_livestock	agricultural_production	NA	SARL-REMON-PHILIPPE_FRA673625-00101	SARL REMON PHILIPPE	Parne Sur Roc	1 - 10	soil preparation services | crop services	Registered office	FALSE			The company SARL REMON PHILIPPE, which operates in the Crop services industry. It also operates in the Soil preparation services industries. It is based in Parne Sur Roc, France.		La Charmille 	53260	Crop services, Soil preparation services	NA	NA	2	47.996440050000004	-0.6823272132964665
france	agriculture_livestock	agricultural_production	NA	ETABLISSEMENTS-JULIA-ET-FILS_FRA712374-00101	ETABLISSEMENTS JULIA ET FILS	St Jean Delnous	1 - 10	soil preparation services | crop services	Registered office	FALSE			The company ETABLISSEMENTS JULIA ET FILS, which operates in the Crop services industry. It also operates in the Soil preparation services industries. It is based in St Jean Delnous, France.		Lieu Dit La Pomarede 	12170	Crop services, Soil preparation services	NA	NA	2	44.07061971111111	2.52971681280415
france	agriculture_livestock	agricultural_production	NA	AGRICULTURE-SERVICES-DISTRIBUTION_FRA729167-00101	AGRICULTURE SERVICES DISTRIBUTION	St Ouen La Rouerie	1 - 10	soil preparation services | crop services	Registered office	FALSE			The company AGRICULTURE SERVICES DISTRIBUTION, which operates in the Crop services industry. It also operates in the Soil preparation services industries. It is based in St Ouen La Rouerie, France.		Lieu Dit Guiborel 	35460	Crop services, Soil preparation services	NA	NA	2	48.383075491420115	-1.3733315507465882
france	agriculture_livestock	agricultural_production	NA	SARL-LETOURNEUR_FRA779588-00101	SARL LETOURNEUR	Landepereuse	1 - 10	soil preparation services | crop services	Registered office	FALSE			The company SARL LETOURNEUR, which operates in the Crop services industry. It also operates in the Soil preparation services industries. It is based in Landepereuse, France.		Le Tilleul En Ouche 	27410	Crop services, Soil preparation services	NA	NA	2	49.0082468	0.7007311728903345
france	agriculture_livestock	agricultural_production	NA	ETABLISSEMENTS-SCHLICK_FRA661673-00101	ETABLISSEMENTS SCHLICK	Faumont	1 - 10	soil preparation services | crop services	Registered office	FALSE			The company ETABLISSEMENTS SCHLICK, which operates in the Crop services industry. It also operates in the Soil preparation services industries. It is based in Faumont, France.		70 Route Nationale 	59310	Crop services, Soil preparation services	NA	NA	2	50.4765772975267	3.2467695334775932
france	agriculture_livestock	agricultural_production	NA	SARL-BERTRANDIE_FRA726747-00101	SARL BERTRANDIE	Pontarion		soil preparation services | crop services	Registered office	FALSE			The company SARL BERTRANDIE, which operates in the Crop services industry. It also operates in the Soil preparation services industries. It is based in Pontarion, France.		Chateau Gaillard 	23250	Crop services, Soil preparation services	NA	NA	2	46.011545299999995	1.8827585282518842
france	agriculture_livestock	agricultural_production	NA	JAMES-PERRINET_FRA780462-00101	JAMES PERRINET	Bonnes	1 - 10	soil preparation services | crop services	Registered office	FALSE			The company JAMES PERRINET, which operates in the Crop services industry. It also operates in the Soil preparation services industries. It is based in Bonnes, France.		Lieu Dit Bois Carre 	86300	Crop services, Soil preparation services	NA	NA	2	46.544916	0.6910906666416572
france	agriculture_livestock	agricultural_production	NA	SARL-LA-MONTESPANAISE_FRA722709-00101	SARL LA MONTESPANAISE	Montespan	1 - 10	soil preparation services	Registered office	FALSE			The company SARL LA MONTESPANAISE, which operates in the Soil preparation services industry. It is based in Montespan, France.		Les Artigues 	31260	Soil preparation services	NA	NA	2	43.108106295714286	0.9629170987923236
france	agriculture_livestock	agricultural_production	NA	SETAF_FRA745023-00101	SETAF	Martigne Ferchaud	1 - 10	soil preparation services | crop services	Registered office	FALSE			The company SETAF, which operates in the Crop services industry. It also operates in the Soil preparation services industries. It is based in Martigne Ferchaud, France.		Les Chevrolais 	35640	Crop services, Soil preparation services	NA	NA	2	47.830139028169256	-1.3056597471232763
france	agriculture_livestock	agricultural_production	NA	MICHEL-POULIQUEN_FRA722395-00101	MICHEL POULIQUEN	Loc Eguiner	1 - 10	soil preparation services | crop services	Registered office	FALSE			The company MICHEL POULIQUEN, which operates in the Crop services industry. It also operates in the Soil preparation services industries. It is based in Loc Eguiner, France.		Kergoff 	29400	Crop services, Soil preparation services	NA	NA	2	48.50696402862765	-4.086545064873321
france	agriculture_livestock	agricultural_production	NA	LEPPSA_FRA773241-00101	L'EPPSA	Sedzere	1 - 10	soil preparation services | crop services	Registered office	FALSE			The company L'EPPSA, which operates in the Crop services industry. It also operates in the Soil preparation services industries. It is based in Sedzere, France.		64160 Sedzere	NA	Crop services, Soil preparation services	NA	NA	2	NA	NA
france	agriculture_livestock	agricultural_production	NA	SARL-JAURIAT_FRA765143-00101	SARL JAURIAT	Authezat	1 - 10	soil preparation services | crop services	Registered office	FALSE			The company SARL JAURIAT, which operates in the Crop services industry. It also operates in the Soil preparation services industries. It is based in Authezat, France.		Rue Du Coudert 	63114	Crop services, Soil preparation services	NA	NA	2	45.6274452	3.200223190227195
france	agriculture_livestock	agricultural_production	NA	SARL-SERVICES-ET-PRESTATIONS_FRA700695-00101	SARL SERVICES ET PRESTATIONS	Damery	1 - 10	soil preparation services | crop services	Registered office	FALSE			The company SARL SERVICES ET PRESTATIONS, which operates in the Crop services industry. It also operates in the Soil preparation services industries. It is based in Damery, France.		1 Avenue De Champagne 	51480	Crop services, Soil preparation services	NA	NA	2	49.098974850000005	3.8779150145403705
france	agriculture_livestock	agricultural_production	NA	DU-PRESSOIR_FRA753834-00101	DU PRESSOIR	Champneuville	1 - 10	soil preparation services | crop services	Registered office	FALSE			The company DU PRESSOIR, which operates in the Crop services industry. It also operates in the Soil preparation services industries. It is based in Champneuville, France.		2 Rue Laval 	55100	Crop services, Soil preparation services	NA	NA	2	49.182384850000005	5.244598714403294
france	agriculture_livestock	agricultural_production	NA	EVDS_FRA701187-00101	E.V.D.S.	Balizac	1 - 10	soil preparation services | crop services	Registered office	FALSE			The company E.V.D.S., which operates in the Crop services industry. It also operates in the Soil preparation services industries. It is based in Balizac, France.		5 Le Moulias 	33730	Crop services, Soil preparation services	NA	NA	2	44.4286453	-0.3468962703117785
france	agriculture_livestock	agricultural_production	NA	PRESTAGRI_FRA788702-00101	PREST'AGRI	Planty	1 - 10	soil preparation services | crop services	Registered office	FALSE			The company PREST'AGRI, which operates in the Crop services industry. It also operates in the Soil preparation services industries. It is based in Planty, France.		7 Rue Des Dames 	10160	Crop services, Soil preparation services	NA	NA	2	48.198794	3.711907426086394
france	agriculture_livestock	agricultural_production	NA	EURL-MEERSCHMAN-RICHARD_FRA720005-00101	EURL MEERSCHMAN RICHARD	Villers Tournelle	1 - 10	soil preparation services | crop services	Registered office	FALSE			The company EURL MEERSCHMAN RICHARD, which operates in the Crop services industry. It also operates in the Soil preparation services industries. It is based in Villers Tournelle, France.		5 Rue St Jacques 	80500	Crop services, Soil preparation services	NA	NA	2	49.65458815	2.5669718473474807
france	agriculture_livestock	agricultural_production	NA	SARL-JMH-TEXIER-VERZENAY_FRA643972-00101	SARL JMH TEXIER VERZENAY	Verzenay	1 - 10	soil preparation services | crop services	Registered office	FALSE			The company SARL JMH TEXIER VERZENAY, which operates in the Crop services industry. It also operates in the Soil preparation services industries. It is based in Verzenay, France.		41 Rue De Mailly 	51360	Crop services, Soil preparation services	NA	NA	2	49.1803441	4.206212214997642
france	agriculture_livestock	agricultural_production	NA	TEIRE-ET-FILS_FRA757980-00101	TEIRE ET FILS	Etoile Sur Rhone	1 - 10	soil preparation services | crop services	Registered office	FALSE			The company TEIRE ET FILS, which operates in the Crop services industry. It also operates in the Soil preparation services industries. It is based in Etoile Sur Rhone, France.		Quai Nazareth 	26800	Crop services, Soil preparation services	NA	NA	2	44.8363029	4.871102973359202
france	agriculture_livestock	agricultural_production	NA	ENTREPRISE-POZZOLI_FRA797453-00101	ENTREPRISE POZZOLI	Vianne	1 - 10	soil preparation services | crop services	Registered office	FALSE			The company ENTREPRISE POZZOLI, which operates in the Crop services industry. It also operates in the Soil preparation services industries. It is based in Vianne, France.		Pebasque 	47230	Crop services, Soil preparation services	NA	NA	2	44.18199319530808	0.2966315720589363
france	agriculture_livestock	agricultural_production	NA	LASSIGNY-MOTOCULTURE_FRA721245-00101	LASSIGNY MOTOCULTURE	Lassigny	1 - 10	soil preparation services | crop services	Registered office	FALSE			The company LASSIGNY MOTOCULTURE, which operates in the Crop services industry. It also operates in the Soil preparation services industries. It is based in Lassigny, France.		Zone Artisanale 	60310	Crop services, Soil preparation services	NA	NA	2	49.622178000000005	2.865197284871021
france	agriculture_livestock	agricultural_production	NA	BOUHET_FRA734100-00101	BOUHET	Marigny Chemereau	1 - 10	soil preparation services | crop services	Registered office	FALSE			The company BOUHET, which operates in the Crop services industry. It also operates in the Soil preparation services industries. It is based in Marigny Chemereau, France.		Lieu Dit Le Fouilloux Le Fouilloux 	86370	Crop services, Soil preparation services	NA	NA	2	46.4354144	0.2446791032950341
france	agriculture_livestock	agricultural_production	NA	EURL-SAILLY_FRA739334-00101	EURL SAILLY	Caix	1 - 10	soil preparation services | crop services	Registered office	FALSE			The company EURL SAILLY, which operates in the Crop services industry. It also operates in the Soil preparation services industries. It is based in Caix, France.		14 Rue De L'Eglise 	80170	Crop services, Soil preparation services	NA	NA	2	49.807464319607845	2.691184820452946
france	agriculture_livestock	agricultural_production	NA	SARL-BELY_FRA788706-00101	SARL BELY	Cezais	1 - 10	soil preparation services | crop services	Registered office	FALSE			The company SARL BELY, which operates in the Crop services industry. It also operates in the Soil preparation services industries. It is based in Cezais, France.		Lieu Dit L'Erriere 	85410	Crop services, Soil preparation services	NA	NA	2	46.59721152857143	-0.8739592125521358
france	agriculture_livestock	agricultural_production	NA	ENTR-GENERALE-TRAVAUX-AGRICOLES-DAVID_FRA750243-00101	ENTR GENERALE TRAVAUX AGRICOLES DAVID	Sion Les Mines	1 - 10	soil preparation services | crop services	Registered office	FALSE			The company ENTR GENERALE TRAVAUX AGRICOLES DAVID, which operates in the Crop services industry. It also operates in the Soil preparation services industries. It is based in Sion Les Mines, France.		Lieu Dit La Chevauchee 	44590	Crop services, Soil preparation services	NA	NA	2	47.670263673879376	-1.6442493113847207
france	agriculture_livestock	agricultural_production	NA	SARL-LE-PONT_FRA746008-00101	SARL LE PONT	Banvou	1 - 10	soil preparation services | crop services	Registered office	FALSE			The company SARL LE PONT, which operates in the Crop services industry. It also operates in the Soil preparation services industries. It is based in Banvou, France.		Le Pont 	61450	Crop services, Soil preparation services	NA	NA	2	48.65742037142858	-0.5335202877870457
france	agriculture_livestock	agricultural_production	NA	SARL-DARRIEUX_FRA696509-00101	SARL DARRIEUX	Garravet	1 - 10	soil preparation services | crop services	Registered office	FALSE			The company SARL DARRIEUX, which operates in the Crop services industry. It also operates in the Soil preparation services industries. It is based in Garravet, France.		Enderlus 	32220	Crop services, Soil preparation services	NA	NA	2	43.443906549999994	0.9194519984747584
france	agriculture_livestock	agricultural_production	NA	EURL-FRONTAGRI_FRA720887-00101	EURL FRONTAGRI	La Malmaison		soil preparation services | crop services	Registered office	FALSE			The company EURL FRONTAGRI, which operates in the Crop services industry. It also operates in the Soil preparation services industries. It is based in La Malmaison, France.		Ferme De Frontigny 	02190	Crop services, Soil preparation services	NA	NA	2	49.4558942	3.957120651276906
france	agriculture_livestock	agricultural_production	NA	EURL-ETA-DECHAMBRE_FRA729011-00101	EURL ETA DECHAMBRE	Trigueres	1 - 10	soil preparation services | crop services	Registered office	FALSE			The company EURL ETA DECHAMBRE, which operates in the Crop services industry. It also operates in the Soil preparation services industries. It is based in Trigueres, France.		Lieu Dit Les Chalots Les Etoits 	45220	Crop services, Soil preparation services	NA	NA	2	47.94510288582397	2.93391349040899
france	agriculture_livestock	agricultural_production	NA	ENTR-TRAVAUX-AGRICOLES-QUICLET_FRA777991-00101	ENTR TRAVAUX AGRICOLES QUICLET	Montigny Les Vesoul	1 - 10	soil preparation services | crop services	Registered office	FALSE			The company ENTR TRAVAUX AGRICOLES QUICLET, which operates in the Crop services industry. It also operates in the Soil preparation services industries. It is based in Montigny Les Vesoul, France.		25 Grande Rue 	70000	Crop services, Soil preparation services	NA	NA	2	47.61001915	6.1766399948524455
france	agriculture_livestock	agricultural_production	NA	SARL-DESESQUELLES-DE-MUYNCK_FRA738882-00101	S.A.R.L. DESESQUELLES - DE MUYNCK	Haute Epine	1 - 10	soil preparation services | crop services	Registered office	FALSE			The company S.A.R.L. DESESQUELLES - DE MUYNCK, which operates in the Crop services industry. It also operates in the Soil preparation services industries. It is based in Haute Epine, France.		28 Rue Du Petit Bout 	60690	Crop services, Soil preparation services	NA	NA	2	49.57671605	1.9601900057288644
